[
  {
    "recordId": "71656086224",
    "name": "Meadows Union District",
    "competitor": "Apptegy",
    "domain": "meadowsunion.org",
    "city": "Denver",
    "state": "Colorado",
    "owner": "Abdullah Alhajj",
    "createDate": "2025-05-01 10:25",
    "lat": 39.70825580640828,
    "lng": -104.95961368324052,
    "type": "competitor",
    "products": [
      "CMS"
    ],
    "customerType": "District",
    "arr": 39470,
    "employees": 394,
    "lastContact": "2025-05-01 10:25",
    "salesStage": "Competitor",
    "priority": "High"
  },
  {
    "recordId": "71562798786",
    "name": "Marietta Independent School District 16",
    "competitor": "Apptegy",
    "domain": "marietta.k12.ok.us",
    "city": "Austin",
    "state": "Texas",
    "owner": "Alex Boehm",
    "createDate": "2025-05-01 10:23",
    "lat": 30.21666208762627,
    "lng": -97.69859254245935,
    "type": "competitor",
    "products": [
      "CMS"
    ],
    "customerType": "District",
    "arr": 36346,
    "employees": 248,
    "lastContact": "2025-05-01 10:23",
    "salesStage": "Competitor",
    "priority": "High"
  },
  {
    "recordId": "72542851771",
    "name": "(CSD07) Community School District 07",
    "competitor": "Apptegy",
    "domain": "csd7.org",
    "city": "Orlando",
    "state": "Florida",
    "owner": "Christopher Conforti",
    "createDate": "2025-05-01 10:23",
    "lat": 28.474845096643275,
    "lng": -81.40705698296664,
    "type": "competitor",
    "products": [
      "CMS"
    ],
    "customerType": "District",
    "arr": 26131,
    "employees": 1374,
    "lastContact": "2025-05-01 10:23",
    "salesStage": "Competitor",
    "priority": "High"
  },
  {
    "recordId": "72584735465",
    "name": "Kidzark Jackie Reynolds School",
    "competitor": "Apptegy",
    "domain": "re1valleyschools.org",
    "city": "Los Angeles",
    "state": "California",
    "owner": "Christopher Conforti",
    "createDate": "2025-05-01 10:16",
    "lat": 34.048978827046525,
    "lng": -118.33009518999462,
    "type": "competitor",
    "products": [
      "CMS"
    ],
    "customerType": "District",
    "arr": 47997,
    "employees": 4401,
    "lastContact": "2025-05-01 10:16",
    "salesStage": "Competitor",
    "priority": "High"
  },
  {
    "recordId": "72608844498",
    "name": "Elhurdt Charter",
    "competitor": "Apptegy",
    "domain": "",
    "city": "Austin",
    "state": "Texas",
    "owner": "Meheir Jahezian (Deactivated User)",
    "createDate": "2025-05-01 10:15",
    "lat": 30.25134663603744,
    "lng": -97.76554063207853,
    "type": "competitor",
    "products": [
      "CMS"
    ],
    "customerType": "District",
    "arr": 32503,
    "employees": 3682,
    "lastContact": "2025-05-01 10:15",
    "salesStage": "Competitor",
    "priority": "High"
  },
  {
    "recordId": "72575737539",
    "name": "Helena-West Helena Central High School",
    "competitor": "Apptegy",
    "domain": "",
    "city": "Miami",
    "state": "Florida",
    "owner": "Clare Collins",
    "createDate": "2025-05-01 10:15",
    "lat": 25.840388229409523,
    "lng": -80.09668908173079,
    "type": "competitor",
    "products": [
      "CMS"
    ],
    "customerType": "District",
    "arr": 13637,
    "employees": 4709,
    "lastContact": "2025-05-01 10:15",
    "salesStage": "Competitor",
    "priority": "High"
  },
  {
    "recordId": "72593732306",
    "name": "Springdale Archer ALC",
    "competitor": "Apptegy",
    "domain": "alc.sdale.org",
    "city": "Dallas",
    "state": "Texas",
    "owner": "Clare Collins",
    "createDate": "2025-05-01 10:15",
    "lat": 32.77326906220996,
    "lng": -96.81659468612357,
    "type": "competitor",
    "products": [
      "CMS"
    ],
    "customerType": "District",
    "arr": 38417,
    "employees": 4656,
    "lastContact": "2025-05-01 10:15",
    "salesStage": "Competitor",
    "priority": "High"
  },
  {
    "recordId": "71571795695",
    "name": "Hector Elementary",
    "competitor": "Apptegy",
    "domain": "hectorschools.net",
    "city": "Dallas",
    "state": "Texas",
    "owner": "Clare Collins",
    "createDate": "2025-05-01 10:15",
    "lat": 32.78282688130588,
    "lng": -96.89389113978449,
    "type": "competitor",
    "products": [
      "CMS"
    ],
    "customerType": "District",
    "arr": 33488,
    "employees": 590,
    "lastContact": "2025-05-01 10:15",
    "salesStage": "Competitor",
    "priority": "High"
  },
  {
    "recordId": "71562786509",
    "name": "Arkadelphia",
    "competitor": "Apptegy",
    "domain": "arkadelphiaschools.org",
    "city": "Houston",
    "state": "Texas",
    "owner": "Clare Collins",
    "createDate": "2025-05-01 10:15",
    "lat": 29.795887890827213,
    "lng": -95.2832883323131,
    "type": "competitor",
    "products": [
      "CMS"
    ],
    "customerType": "District",
    "arr": 33239,
    "employees": 1132,
    "lastContact": "2025-05-01 10:15",
    "salesStage": "Competitor",
    "priority": "High"
  },
  {
    "recordId": "71568159425",
    "name": "Jacksonville North Pulaski School Distri",
    "competitor": "Apptegy",
    "domain": "jnpsd.org",
    "city": "Philadelphia",
    "state": "Pennsylvania",
    "owner": "Christopher Conforti",
    "createDate": "2025-05-01 10:15",
    "lat": 40.000687912734875,
    "lng": -75.06679916168022,
    "type": "competitor",
    "products": [
      "CMS"
    ],
    "customerType": "District",
    "arr": 16228,
    "employees": 1712,
    "lastContact": "2025-05-01 10:15",
    "salesStage": "Competitor",
    "priority": "High"
  },
  {
    "recordId": "71568159424",
    "name": "Prairie Grove",
    "competitor": "Apptegy",
    "domain": "pgtigers.org",
    "city": "Dallas",
    "state": "Texas",
    "owner": "Clare Collins",
    "createDate": "2025-05-01 10:15",
    "lat": 32.84068729709285,
    "lng": -96.77906708924469,
    "type": "competitor",
    "products": [
      "CMS"
    ],
    "customerType": "District",
    "arr": 36898,
    "employees": 1139,
    "lastContact": "2025-05-01 10:15",
    "salesStage": "Competitor",
    "priority": "High"
  },
  {
    "recordId": "72550035142",
    "name": "Cutter-Morning Star",
    "competitor": "Apptegy",
    "domain": "eaglesnest.dsc.k12.ar.us",
    "city": "Miami",
    "state": "Florida",
    "owner": "Clare Collins",
    "createDate": "2025-05-01 10:15",
    "lat": 25.673942323260544,
    "lng": -80.17365546199787,
    "type": "competitor",
    "products": [
      "CMS"
    ],
    "customerType": "District",
    "arr": 19131,
    "employees": 3711,
    "lastContact": "2025-05-01 10:15",
    "salesStage": "Competitor",
    "priority": "High"
  },
  {
    "recordId": "72584735424",
    "name": "Dollarway",
    "competitor": "Apptegy",
    "domain": "dollarwayschools.org",
    "city": "Atlanta",
    "state": "Georgia",
    "owner": "Clare Collins",
    "createDate": "2025-05-01 10:15",
    "lat": 33.686220641751405,
    "lng": -84.40549004282002,
    "type": "competitor",
    "products": [
      "CMS"
    ],
    "customerType": "District",
    "arr": 48007,
    "employees": 1245,
    "lastContact": "2025-05-01 10:15",
    "salesStage": "Competitor",
    "priority": "High"
  },
  {
    "recordId": "71836717808",
    "name": "JNPSD",
    "competitor": "Apptegy",
    "domain": "",
    "city": "Phoenix",
    "state": "Arizona",
    "owner": "Clare Collins",
    "createDate": "2025-05-01 10:15",
    "lat": 33.462483349646874,
    "lng": -111.99259546391637,
    "type": "competitor",
    "products": [
      "CMS"
    ],
    "customerType": "District",
    "arr": 47258,
    "employees": 1751,
    "lastContact": "2025-05-01 10:15",
    "salesStage": "Competitor",
    "priority": "High"
  },
  {
    "recordId": "72582937303",
    "name": "Gosnell",
    "competitor": "Apptegy",
    "domain": "gosnellschool.net",
    "city": "Miami",
    "state": "Florida",
    "owner": "Clare Collins",
    "createDate": "2025-05-01 10:15",
    "lat": 25.775686287554343,
    "lng": -80.18993714750464,
    "type": "competitor",
    "products": [
      "CMS"
    ],
    "customerType": "District",
    "arr": 23486,
    "employees": 2263,
    "lastContact": "2025-05-01 10:15",
    "salesStage": "Competitor",
    "priority": "High"
  },
  {
    "recordId": "72544635580",
    "name": "City School District of New Rochelle",
    "competitor": "Apptegy",
    "domain": "nred.org",
    "city": "Philadelphia",
    "state": "Pennsylvania",
    "owner": "Christopher Conforti",
    "createDate": "2025-05-01 10:15",
    "lat": 39.903662728844154,
    "lng": -75.18799957637218,
    "type": "competitor",
    "products": [
      "CMS"
    ],
    "customerType": "District",
    "arr": 15619,
    "employees": 4515,
    "lastContact": "2025-05-01 10:15",
    "salesStage": "Competitor",
    "priority": "High"
  },
  {
    "recordId": "71568158427",
    "name": "Howland",
    "competitor": "Apptegy",
    "domain": "howlandschools.com",
    "city": "Seattle",
    "state": "Washington",
    "owner": "Justin Reed",
    "createDate": "2025-05-01 10:15",
    "lat": 47.557585386323375,
    "lng": -122.30572140275521,
    "type": "competitor",
    "products": [
      "CMS"
    ],
    "customerType": "District",
    "arr": 25150,
    "employees": 4881,
    "lastContact": "2025-05-01 10:15",
    "salesStage": "Competitor",
    "priority": "High"
  },
  {
    "recordId": "71609528028",
    "name": "Mov Adult Education",
    "competitor": "Apptegy",
    "domain": "woodcountyschoolswv.com",
    "city": "Austin",
    "state": "Texas",
    "owner": "Sabrina Zakarian",
    "createDate": "2025-05-01 10:14",
    "lat": 30.341356426319216,
    "lng": -97.83603907415714,
    "type": "competitor",
    "products": [
      "CMS"
    ],
    "customerType": "District",
    "arr": 6422,
    "employees": 1439,
    "lastContact": "2025-05-01 10:14",
    "salesStage": "Competitor",
    "priority": "High"
  },
  {
    "recordId": "72095189732",
    "name": "Beacon Hill Primary Cntr",
    "competitor": "Apptegy",
    "domain": "",
    "city": "Dallas",
    "state": "Texas",
    "owner": "Alex Boehm",
    "createDate": "2025-05-01 10:10",
    "lat": 32.82162029251354,
    "lng": -96.85997090686074,
    "type": "competitor",
    "products": [
      "CMS"
    ],
    "customerType": "District",
    "arr": 38418,
    "employees": 4080,
    "lastContact": "2025-05-01 10:10",
    "salesStage": "Competitor",
    "priority": "High"
  },
  {
    "recordId": "72575733477",
    "name": "Putnam Virtual Instruction Program (District Provi",
    "competitor": "Apptegy",
    "domain": "putnamschools.org",
    "city": "Boston",
    "state": "Massachusetts",
    "owner": "Ali Arsan",
    "createDate": "2025-05-01 10:00",
    "lat": 42.369900085623485,
    "lng": -71.07318538845217,
    "type": "competitor",
    "products": [
      "CMS"
    ],
    "customerType": "District",
    "arr": 13505,
    "employees": 929,
    "lastContact": "2025-05-01 10:00",
    "salesStage": "Competitor",
    "priority": "High"
  },
  {
    "recordId": "71695697595",
    "name": "Ilion Public School District",
    "competitor": "Apptegy",
    "domain": "ilioncsd.11gb881.remote.schoolcenter.com",
    "city": "Philadelphia",
    "state": "Pennsylvania",
    "owner": "Christopher Conforti",
    "createDate": "2025-05-01 09:54",
    "lat": 40.019945364860114,
    "lng": -75.08255138131845,
    "type": "competitor",
    "products": [
      "CMS"
    ],
    "customerType": "District",
    "arr": 19995,
    "employees": 1746,
    "lastContact": "2025-05-01 09:54",
    "salesStage": "Competitor",
    "priority": "High"
  },
  {
    "recordId": "72573934279",
    "name": "Bolinas-Stinson Union",
    "competitor": "Apptegy",
    "domain": "bolinas-stinson.org",
    "city": "Orlando",
    "state": "Florida",
    "owner": "Johan Cerrato",
    "createDate": "2025-05-01 09:54",
    "lat": 28.547979638770094,
    "lng": -81.39482584622694,
    "type": "competitor",
    "products": [
      "CMS"
    ],
    "customerType": "District",
    "arr": 33333,
    "employees": 4823,
    "lastContact": "2025-05-01 09:54",
    "salesStage": "Competitor",
    "priority": "High"
  },
  {
    "recordId": "71564549839",
    "name": "Asher Public School I-112",
    "competitor": "Apptegy",
    "domain": "asher.k12.ok.us",
    "city": "Denver",
    "state": "Colorado",
    "owner": "Alex Boehm",
    "createDate": "2025-05-01 09:52",
    "lat": 39.679879582113294,
    "lng": -104.98078503267973,
    "type": "competitor",
    "products": [
      "CMS"
    ],
    "customerType": "District",
    "arr": 29994,
    "employees": 1134,
    "lastContact": "2025-05-01 09:52",
    "salesStage": "Competitor",
    "priority": "High"
  },
  {
    "recordId": "72599125743",
    "name": "Clifton-Clyde",
    "competitor": "Apptegy",
    "domain": "usd224.com",
    "city": "San Francisco",
    "state": "California",
    "owner": "Sabrina Zakarian",
    "createDate": "2025-05-01 09:50",
    "lat": 37.76970230863065,
    "lng": -122.37408802699116,
    "type": "competitor",
    "products": [
      "CMS"
    ],
    "customerType": "District",
    "arr": 10485,
    "employees": 2866,
    "lastContact": "2025-05-01 09:50",
    "salesStage": "Competitor",
    "priority": "High"
  },
  {
    "recordId": "71823436535",
    "name": "School City of Whiting",
    "competitor": "Apptegy",
    "domain": "whiting.k12.in.us",
    "city": "Atlanta",
    "state": "Georgia",
    "owner": "Justin Reed",
    "createDate": "2025-05-01 09:50",
    "lat": 33.829865965867526,
    "lng": -84.30701210008688,
    "type": "competitor",
    "products": [
      "CMS"
    ],
    "customerType": "District",
    "arr": 5848,
    "employees": 3854,
    "lastContact": "2025-05-01 09:50",
    "salesStage": "Competitor",
    "priority": "High"
  },
  {
    "recordId": "72537435883",
    "name": "Bureau Valley Cmty Unit 340",
    "competitor": "Apptegy",
    "domain": "bv340.org",
    "city": "Los Angeles",
    "state": "California",
    "owner": "Alex Boehm",
    "createDate": "2025-05-01 09:50",
    "lat": 34.06652368885825,
    "lng": -118.17173314876597,
    "type": "competitor",
    "products": [
      "CMS"
    ],
    "customerType": "District",
    "arr": 38625,
    "employees": 1161,
    "lastContact": "2025-05-01 09:50",
    "salesStage": "Competitor",
    "priority": "High"
  },
  {
    "recordId": "71568154336",
    "name": "South Fork Union",
    "competitor": "Apptegy",
    "domain": "southforkschool.org",
    "city": "Philadelphia",
    "state": "Pennsylvania",
    "owner": "Johan Cerrato",
    "createDate": "2025-05-01 09:49",
    "lat": 39.99559594413115,
    "lng": -75.18184253112321,
    "type": "competitor",
    "products": [
      "CMS"
    ],
    "customerType": "District",
    "arr": 16627,
    "employees": 1851,
    "lastContact": "2025-05-01 09:49",
    "salesStage": "Competitor",
    "priority": "High"
  },
  {
    "recordId": "72542833374",
    "name": "Hector",
    "competitor": "Apptegy",
    "domain": "hectorschools.net",
    "city": "Atlanta",
    "state": "Georgia",
    "owner": "Clare Collins",
    "createDate": "2025-05-01 09:46",
    "lat": 33.73999119899972,
    "lng": -84.46351091493374,
    "type": "competitor",
    "products": [
      "CMS"
    ],
    "customerType": "District",
    "arr": 6291,
    "employees": 1865,
    "lastContact": "2025-05-01 09:46",
    "salesStage": "Competitor",
    "priority": "High"
  },
  {
    "recordId": "72542833373",
    "name": "Hillsdale County I S D",
    "competitor": "Apptegy",
    "domain": "hillsdale-isd.org",
    "city": "Seattle",
    "state": "Washington",
    "owner": "Alex Boehm",
    "createDate": "2025-05-01 09:46",
    "lat": 47.56170071772198,
    "lng": -122.36017661467437,
    "type": "competitor",
    "products": [
      "CMS"
    ],
    "customerType": "District",
    "arr": 24370,
    "employees": 1430,
    "lastContact": "2025-05-01 09:46",
    "salesStage": "Competitor",
    "priority": "High"
  },
  {
    "recordId": "71571787482",
    "name": "Icahn Charter School 4",
    "competitor": "Apptegy",
    "domain": "icahncharterschool4.org",
    "city": "Philadelphia",
    "state": "Pennsylvania",
    "owner": "Christopher Conforti",
    "createDate": "2025-05-01 09:45",
    "lat": 40.04297530895055,
    "lng": -75.15522673332025,
    "type": "competitor",
    "products": [
      "CMS"
    ],
    "customerType": "District",
    "arr": 38858,
    "employees": 1832,
    "lastContact": "2025-05-01 09:45",
    "salesStage": "Competitor",
    "priority": "High"
  },
  {
    "recordId": "72300356342",
    "name": "St John's Lutheran School",
    "competitor": "Apptegy",
    "domain": "redwood.mntm.org",
    "city": "Seattle",
    "state": "Washington",
    "owner": "Alex Boehm",
    "createDate": "2025-05-01 09:45",
    "lat": 47.53991995843544,
    "lng": -122.33131377455217,
    "type": "competitor",
    "products": [
      "CMS"
    ],
    "customerType": "District",
    "arr": 24290,
    "employees": 3307,
    "lastContact": "2025-05-01 09:45",
    "salesStage": "Competitor",
    "priority": "High"
  },
  {
    "recordId": "71836709625",
    "name": "Center for Excellence",
    "competitor": "Apptegy",
    "domain": "nlrsd.org",
    "city": "Chicago",
    "state": "Illinois",
    "owner": "Clare Collins",
    "createDate": "2025-05-01 09:45",
    "lat": 41.918769249605276,
    "lng": -87.68210052225966,
    "type": "competitor",
    "products": [
      "CMS"
    ],
    "customerType": "District",
    "arr": 20870,
    "employees": 434,
    "lastContact": "2025-05-01 09:45",
    "salesStage": "Competitor",
    "priority": "High"
  },
  {
    "recordId": "66455296720",
    "name": "Lovington Elem School",
    "competitor": "Apptegy",
    "domain": "cusd305.org",
    "city": "New York",
    "state": "New York",
    "owner": "Alex Boehm",
    "createDate": "2025-04-23 18:29",
    "lat": 40.71224657411752,
    "lng": -73.95666889676983,
    "type": "competitor",
    "products": [
      "CMS"
    ],
    "customerType": "District",
    "arr": 48448,
    "employees": 4311,
    "lastContact": "2025-04-23 18:29",
    "salesStage": "Competitor",
    "priority": "High"
  },
  {
    "recordId": "66576910068",
    "name": "Eblen Intermediate",
    "competitor": "Apptegy",
    "domain": "jpeis.buncombeschools.org",
    "city": "New York",
    "state": "New York",
    "owner": "Christopher Conforti",
    "createDate": "2025-04-23 18:29",
    "lat": 40.8065130127843,
    "lng": -74.02435634613404,
    "type": "competitor",
    "products": [
      "CMS"
    ],
    "customerType": "District",
    "arr": 12075,
    "employees": 4405,
    "lastContact": "2025-04-23 18:29",
    "salesStage": "Competitor",
    "priority": "High"
  },
  {
    "recordId": "66576910062",
    "name": "Dyllis Springs Elementary School",
    "competitor": "Apptegy",
    "domain": "dses.roaneschools.com",
    "city": "New York",
    "state": "New York",
    "owner": "Justin Reed",
    "createDate": "2025-04-23 18:29",
    "lat": 40.73171718035898,
    "lng": -74.09747311756281,
    "type": "competitor",
    "products": [
      "CMS"
    ],
    "customerType": "District",
    "arr": 36181,
    "employees": 1404,
    "lastContact": "2025-04-23 18:29",
    "salesStage": "Competitor",
    "priority": "High"
  },
  {
    "recordId": "67360862929",
    "name": "Wayne Hills Ctr",
    "competitor": "Apptegy",
    "domain": "waynesborowhc.ss9.sharpschool.com",
    "city": "Phoenix",
    "state": "Arizona",
    "owner": "Clare Collins",
    "createDate": "2025-04-23 18:29",
    "lat": 33.530739501663184,
    "lng": -112.00976796421847,
    "type": "competitor",
    "products": [
      "CMS"
    ],
    "customerType": "District",
    "arr": 39428,
    "employees": 3401,
    "lastContact": "2025-04-23 18:29",
    "salesStage": "Competitor",
    "priority": "High"
  },
  {
    "recordId": "67045381873",
    "name": "Newport Elementary School",
    "competitor": "Apptegy",
    "domain": "newportschools.org",
    "city": "Denver",
    "state": "Colorado",
    "owner": "Clare Collins",
    "createDate": "2025-04-23 18:29",
    "lat": 39.81186572780614,
    "lng": -104.9308409961149,
    "type": "competitor",
    "products": [
      "CMS"
    ],
    "customerType": "District",
    "arr": 32589,
    "employees": 3296,
    "lastContact": "2025-04-23 18:29",
    "salesStage": "Competitor",
    "priority": "High"
  },
  {
    "recordId": "67311998670",
    "name": "Spring Mills Primary",
    "competitor": "Apptegy",
    "domain": "berkeleycountyschools.org",
    "city": "Miami",
    "state": "Florida",
    "owner": "Sabrina Zakarian",
    "createDate": "2025-04-23 18:28",
    "lat": 25.764711514747784,
    "lng": -80.17128921600516,
    "type": "competitor",
    "products": [
      "CMS"
    ],
    "customerType": "District",
    "arr": 13019,
    "employees": 1132,
    "lastContact": "2025-04-23 18:28",
    "salesStage": "Competitor",
    "priority": "High"
  },
  {
    "recordId": "67350294243",
    "name": "Elsik High School",
    "competitor": "Apptegy",
    "domain": "aliefisd.net",
    "city": "New York",
    "state": "New York",
    "owner": "Sabrina Zakarian",
    "createDate": "2025-04-23 18:28",
    "lat": 40.73268535698815,
    "lng": -74.100048240383,
    "type": "competitor",
    "products": [
      "CMS"
    ],
    "customerType": "District",
    "arr": 49883,
    "employees": 4703,
    "lastContact": "2025-04-23 18:28",
    "salesStage": "Competitor",
    "priority": "High"
  },
  {
    "recordId": "67364463292",
    "name": "Heritage Es",
    "competitor": "Apptegy",
    "domain": "tahlequahschools.org",
    "city": "Atlanta",
    "state": "Georgia",
    "owner": "Alex Boehm",
    "createDate": "2025-04-23 18:28",
    "lat": 33.69166656662047,
    "lng": -84.42597926221926,
    "type": "competitor",
    "products": [
      "CMS"
    ],
    "customerType": "District",
    "arr": 45973,
    "employees": 2478,
    "lastContact": "2025-04-23 18:28",
    "salesStage": "Competitor",
    "priority": "High"
  },
  {
    "recordId": "67243444926",
    "name": "Kaplan Career Academy",
    "competitor": "Apptegy",
    "domain": "gncufsdkaplanacademy.ss8.sharpschool.com",
    "city": "San Francisco",
    "state": "California",
    "owner": "Christopher Conforti",
    "createDate": "2025-04-23 18:28",
    "lat": 37.87082877301332,
    "lng": -122.35361715846406,
    "type": "competitor",
    "products": [
      "CMS"
    ],
    "customerType": "District",
    "arr": 49234,
    "employees": 1778,
    "lastContact": "2025-04-23 18:28",
    "salesStage": "Competitor",
    "priority": "High"
  },
  {
    "recordId": "67350294224",
    "name": "Warwick Area Adult Learning Center",
    "competitor": "Apptegy",
    "domain": "warwickschools.org",
    "city": "Philadelphia",
    "state": "Pennsylvania",
    "owner": "Christopher Conforti",
    "createDate": "2025-04-23 18:28",
    "lat": 39.905134686305004,
    "lng": -75.06560536728436,
    "type": "competitor",
    "products": [
      "CMS"
    ],
    "customerType": "District",
    "arr": 43080,
    "employees": 711,
    "lastContact": "2025-04-23 18:28",
    "salesStage": "Competitor",
    "priority": "High"
  },
  {
    "recordId": "67364462317",
    "name": "Whitetail Creek Elementary",
    "competitor": "Apptegy",
    "domain": "wt.gpsne.org",
    "city": "Los Angeles",
    "state": "California",
    "owner": "Sabrina Zakarian",
    "createDate": "2025-04-23 18:28",
    "lat": 34.10189010520096,
    "lng": -118.16882264316784,
    "type": "competitor",
    "products": [
      "CMS"
    ],
    "customerType": "District",
    "arr": 42442,
    "employees": 681,
    "lastContact": "2025-04-23 18:28",
    "salesStage": "Competitor",
    "priority": "High"
  },
  {
    "recordId": "67371603662",
    "name": "Iforward",
    "competitor": "Apptegy",
    "domain": "iforwardwisconsin.com",
    "city": "Phoenix",
    "state": "Arizona",
    "owner": "Alex Boehm",
    "createDate": "2025-04-23 18:27",
    "lat": 33.480621828789424,
    "lng": -112.00433082399209,
    "type": "competitor",
    "products": [
      "CMS"
    ],
    "customerType": "District",
    "arr": 11328,
    "employees": 2896,
    "lastContact": "2025-04-23 18:27",
    "salesStage": "Competitor",
    "priority": "High"
  },
  {
    "recordId": "67350293233",
    "name": "Roberts Ferry Charter School Academy",
    "competitor": "Apptegy",
    "domain": "robertsferry.k12.ca.us",
    "city": "Austin",
    "state": "Texas",
    "owner": "Johan Cerrato",
    "createDate": "2025-04-23 18:27",
    "lat": 30.2801629469785,
    "lng": -97.83044957355,
    "type": "competitor",
    "products": [
      "CMS"
    ],
    "customerType": "District",
    "arr": 39990,
    "employees": 520,
    "lastContact": "2025-04-23 18:27",
    "salesStage": "Competitor",
    "priority": "High"
  },
  {
    "recordId": "67311997673",
    "name": "Osceola Elementary School",
    "competitor": "Apptegy",
    "domain": "osceola.schoolblocks.com",
    "city": "Denver",
    "state": "Colorado",
    "owner": "Clare Collins",
    "createDate": "2025-04-23 18:27",
    "lat": 39.71653132774881,
    "lng": -104.96958826276034,
    "type": "competitor",
    "products": [
      "CMS"
    ],
    "customerType": "District",
    "arr": 29023,
    "employees": 4370,
    "lastContact": "2025-04-23 18:27",
    "salesStage": "Competitor",
    "priority": "High"
  },
  {
    "recordId": "67292263131",
    "name": "Barrington Elementary",
    "competitor": "Apptegy",
    "domain": "nclusd.org",
    "city": "Boston",
    "state": "Massachusetts",
    "owner": "Johan Cerrato",
    "createDate": "2025-04-23 18:27",
    "lat": 42.279778182749496,
    "lng": -70.97675248689666,
    "type": "competitor",
    "products": [
      "CMS"
    ],
    "customerType": "District",
    "arr": 49525,
    "employees": 565,
    "lastContact": "2025-04-23 18:27",
    "salesStage": "Competitor",
    "priority": "High"
  },
  {
    "recordId": "67364462273",
    "name": "Hillcrest Primary School",
    "competitor": "Apptegy",
    "domain": "shawanoschools.com",
    "city": "Orlando",
    "state": "Florida",
    "owner": "Alex Boehm",
    "createDate": "2025-04-23 18:27",
    "lat": 28.591036315724825,
    "lng": -81.44348739259576,
    "type": "competitor",
    "products": [
      "CMS"
    ],
    "customerType": "District",
    "arr": 46090,
    "employees": 652,
    "lastContact": "2025-04-23 18:27",
    "salesStage": "Competitor",
    "priority": "High"
  },
  {
    "recordId": "67360860901",
    "name": "New Manchester High School",
    "competitor": "Apptegy",
    "domain": "nmhs.dcssga.org",
    "city": "San Francisco",
    "state": "California",
    "owner": "Clare Collins",
    "createDate": "2025-04-23 18:27",
    "lat": 37.76431546260664,
    "lng": -122.50535559197779,
    "type": "competitor",
    "products": [
      "CMS"
    ],
    "customerType": "District",
    "arr": 34386,
    "employees": 76,
    "lastContact": "2025-04-23 18:27",
    "salesStage": "Competitor",
    "priority": "High"
  },
  {
    "recordId": "66576908994",
    "name": "Bluestone Elementary School",
    "competitor": "Apptegy",
    "domain": "euclidschools.org",
    "city": "Houston",
    "state": "Texas",
    "owner": "Justin Reed",
    "createDate": "2025-04-23 18:27",
    "lat": 29.70479085946771,
    "lng": -95.46545008534727,
    "type": "competitor",
    "products": [
      "CMS"
    ],
    "customerType": "District",
    "arr": 14623,
    "employees": 2745,
    "lastContact": "2025-04-23 18:27",
    "salesStage": "Competitor",
    "priority": "High"
  },
  {
    "recordId": "67369816783",
    "name": "Shoreview Elementary School",
    "competitor": "Apptegy",
    "domain": "",
    "city": "Euclid",
    "state": "Ohio",
    "owner": "",
    "createDate": "2025-07-15T15:48:10.851466",
    "lat": 41.6133175,
    "lng": -81.5043827,
    "displayName": "Shoreview Elementary School, Mallard Avenue, Shoreview, Euclid, Cuyahoga County, Ohio, 44132, United States",
    "type": "competitor"
  },
  {
    "recordId": "67211528906",
    "name": "Koontz Intermediate",
    "competitor": "Apptegy",
    "domain": "",
    "city": "Asheville",
    "state": "North Carolina",
    "owner": "",
    "createDate": "2025-07-15T15:48:31.812788",
    "lat": 35.4840487,
    "lng": -82.5396018,
    "displayName": "Koontz Intermediate School, Long Shoals Road, Asheville, Buncombe County, North Carolina, 28704, United States",
    "type": "competitor"
  },
  {
    "recordId": "67045379810",
    "name": "Piscataquis Community Elementary",
    "competitor": "Apptegy",
    "domain": "",
    "city": "Guilford",
    "state": "Maine",
    "owner": "",
    "createDate": "2025-07-15T15:48:34.314728",
    "lat": 45.1744075,
    "lng": -69.3786645,
    "displayName": "Piscataquis Community Elementary School, 25, Campus Drive, Guilford, Piscataquis County, Maine, 04443, United States",
    "type": "competitor"
  },
  {
    "recordId": "67362660087",
    "name": "Buckingham County Career And Technical Center",
    "competitor": "Apptegy",
    "domain": "",
    "city": "",
    "state": "Virginia",
    "owner": "",
    "createDate": "2025-07-15T15:48:36.943668",
    "lat": 37.5424204,
    "lng": -78.5113458,
    "displayName": "Buckingham County Career and Technical Center, 98, Fanny White Road, Buckingham County, Virginia, 23921, United States",
    "type": "competitor"
  },
  {
    "recordId": "67350292163",
    "name": "Mcvay Elementary School",
    "competitor": "Apptegy",
    "domain": "",
    "city": "Williston",
    "state": "North Dakota",
    "owner": "",
    "createDate": "2025-07-15T15:48:39.709095",
    "lat": 48.1486505,
    "lng": -103.6145226,
    "displayName": "McVay Elementary School, 5th Street East, Williston, Williams County, North Dakota, 58801, United States",
    "type": "competitor"
  },
  {
    "recordId": "66455294655",
    "name": "Horace J Good Middle School",
    "competitor": "Apptegy",
    "domain": "",
    "city": "Garden City",
    "state": "Kansas",
    "owner": "",
    "createDate": "2025-07-15T15:48:46.299683",
    "lat": 37.9780936,
    "lng": -100.8680248,
    "displayName": "Horace J. Good Middle School, 1312, North Main Street, Garden City, Finney County, Kansas, 67846, United States",
    "type": "competitor"
  },
  {
    "recordId": "66576904928",
    "name": "Woolwich Central School",
    "competitor": "Apptegy",
    "domain": "",
    "city": "Woolwich",
    "state": "Maine",
    "owner": "",
    "createDate": "2025-07-15T15:49:02.783748",
    "lat": 43.9413225,
    "lng": -69.7797844,
    "displayName": "Woolwich Central School, 137, Nequasset Road, Nequasset, Woolwich, Sagadahoc County, Maine, 04579, United States",
    "type": "competitor"
  },
  {
    "recordId": "67292261082",
    "name": "Rawlins Elementary",
    "competitor": "Apptegy",
    "domain": "",
    "city": "Atwood",
    "state": "Kansas",
    "owner": "",
    "createDate": "2025-07-15T15:49:05.520140",
    "lat": 39.8089925,
    "lng": -101.0429517,
    "displayName": "Rawlins County Elementary School, Plumb Street, Atwood, Rawlins County, Kansas, 67730, United States",
    "type": "competitor"
  },
  {
    "recordId": "66455292629",
    "name": "Lee Williams High School",
    "competitor": "Apptegy",
    "domain": "",
    "city": "Kingman",
    "state": "Arizona",
    "owner": "",
    "createDate": "2025-07-15T15:49:08.135390",
    "lat": 35.1920864,
    "lng": -114.0595364,
    "displayName": "Lee Williams High School, East Oak Street, Kingman, Mohave County, Arizona, United States",
    "type": "competitor"
  },
  {
    "recordId": "67211526856",
    "name": "Jackson Academy",
    "competitor": "Apptegy",
    "domain": "",
    "city": "Medford",
    "state": "Oregon",
    "owner": "",
    "createDate": "2025-07-15T15:49:19.205495",
    "lat": 42.3293234,
    "lng": -122.8572536,
    "displayName": "Roosevelt Elementary School, Academy Place, Medford, Jackson County, Oregon, 97504, United States",
    "type": "competitor"
  },
  {
    "recordId": "67360857788",
    "name": "Wildwood Middle School",
    "competitor": "Apptegy",
    "domain": "",
    "city": "Shenandoah Junction",
    "state": "West Virginia",
    "owner": "",
    "createDate": "2025-07-15T15:49:24.504377",
    "lat": 39.3581594,
    "lng": -77.8324698,
    "displayName": "Wildwood Middle School, Shenandoah Junction Road, Shenandoah Junction, Jefferson County, West Virginia, 25442, United States",
    "type": "competitor"
  },
  {
    "recordId": "67371598554",
    "name": "Galapagos Charter School",
    "competitor": "Apptegy",
    "domain": "",
    "city": "Rockford",
    "state": "Illinois",
    "owner": "",
    "createDate": "2025-07-15T15:49:32.086300",
    "lat": 42.2817943,
    "lng": -89.1278505,
    "displayName": "Galapagos Rockford Charter School, North Day Avenue, Rockford, Rockford Township, Winnebago County, Illinois, 61101, United States",
    "type": "competitor"
  },
  {
    "recordId": "67371598527",
    "name": "Washington High School",
    "competitor": "Apptegy",
    "domain": "",
    "city": "Charles Town",
    "state": "West Virginia",
    "owner": "",
    "createDate": "2025-07-15T15:50:14.773746",
    "lat": 39.2595122,
    "lng": -77.8802701,
    "displayName": "Washington High School, 300, Washington Patriots Drive, Charles Town, Jefferson County, West Virginia, 25414, United States",
    "type": "competitor"
  },
  {
    "recordId": "67211525858",
    "name": "Westwood Regional Middle School",
    "competitor": "Apptegy",
    "domain": "",
    "city": "Westwood",
    "state": "New Jersey",
    "owner": "",
    "createDate": "2025-07-15T15:50:18.181319",
    "lat": 40.985362,
    "lng": -74.0370486,
    "displayName": "Westwood Regional Middle School, 23, 3rd Avenue, Westwood, Bergen County, New Jersey, 07675, United States",
    "type": "competitor"
  },
  {
    "recordId": "67364458221",
    "name": "Sacred Heart School",
    "competitor": "Apptegy",
    "domain": "",
    "city": "Boise",
    "state": "Idaho",
    "owner": "",
    "createDate": "2025-07-15T15:50:47.754459",
    "lat": 43.5963115,
    "lng": -116.2304027,
    "displayName": "Sacred Heart Catholic School, 3901, West Cassia Street, Central Bench, Boise, Ada County, Idaho, 83705, United States",
    "type": "competitor"
  },
  {
    "recordId": "67362657995",
    "name": "Summer Creek H S",
    "competitor": "Apptegy",
    "domain": "",
    "city": "Houston",
    "state": "Texas",
    "owner": "",
    "createDate": "2025-07-15T15:51:04.019344",
    "lat": 29.7080692,
    "lng": -95.5470847,
    "displayName": "Summer Creek, 9220, Houston, Harris County, Texas, 77036, United States",
    "type": "competitor"
  },
  {
    "recordId": "67153270517",
    "name": "Cooper Elementary School",
    "competitor": "Apptegy",
    "domain": "",
    "city": "Bella Vista",
    "state": "Arkansas",
    "owner": "",
    "createDate": "2025-07-15T15:51:15.236541",
    "lat": 36.4371586,
    "lng": -94.2303533,
    "displayName": "Cooper Elementary School, 2, Blowing Springs Road, Bella Vista, Benton County, Arkansas, 72714, United States",
    "type": "competitor"
  },
  {
    "recordId": "67360856779",
    "name": "Eisenhower Ms",
    "competitor": "Apptegy",
    "domain": "",
    "city": "Lawton",
    "state": "Oklahoma",
    "owner": "",
    "createDate": "2025-07-15T15:51:18.695511",
    "lat": 34.6116586,
    "lng": -98.4619294,
    "displayName": "Northwest Eisenhower Drive, Lawton, Comanche County, Oklahoma, 73505, United States",
    "type": "competitor"
  },
  {
    "recordId": "67369813704",
    "name": "Massabesic Middle School",
    "competitor": "Apptegy",
    "domain": "",
    "city": "Waterboro",
    "state": "Maine",
    "owner": "",
    "createDate": "2025-07-15T15:51:21.836499",
    "lat": 43.5802146,
    "lng": -70.7020523,
    "displayName": "Massabesic Middle School, 134, Old Alfred Road, Waterboro Center, Waterboro, York County, Maine, 04030, United States",
    "type": "competitor"
  },
  {
    "recordId": "67311992567",
    "name": "Anderson Middle",
    "competitor": "Apptegy",
    "domain": "",
    "city": "",
    "state": "Tennessee",
    "owner": "",
    "createDate": "2025-07-15T15:51:40.392039",
    "lat": 36.1741092,
    "lng": -85.233915,
    "displayName": "Old Anderson School Lane, Anderson, Overton County, Middle Tennessee, Tennessee, 38574, United States",
    "type": "competitor"
  },
  {
    "recordId": "67311992557",
    "name": "Gardner Elementary School",
    "competitor": "Apptegy",
    "domain": "",
    "city": "Waterloo",
    "state": "Illinois",
    "owner": "",
    "createDate": "2025-07-15T15:51:46.481606",
    "lat": 38.3360566,
    "lng": -90.1415698,
    "displayName": "Gardner Elementary, 1, East 4th Street, Waterloo, Monroe County, Illinois, 62298, United States",
    "type": "competitor"
  },
  {
    "recordId": "67045375695",
    "name": "Cade Middle School",
    "competitor": "Apptegy",
    "domain": "",
    "city": "Victoria",
    "state": "Texas",
    "owner": "",
    "createDate": "2025-07-15T15:51:49.422242",
    "lat": 28.8576617,
    "lng": -97.0347105,
    "displayName": "Cade Middle School, 611, West Tropical Drive, Victoria, Victoria County, Texas, 77904, United States",
    "type": "competitor"
  },
  {
    "recordId": "67350288082",
    "name": "Canyon Ridge High School",
    "competitor": "Apptegy",
    "domain": "",
    "city": "Twin Falls",
    "state": "Idaho",
    "owner": "",
    "createDate": "2025-07-15T15:52:37.975426",
    "lat": 42.5871755,
    "lng": -114.4840312,
    "displayName": "Canyon Ridge High School, North College Road West, Twin Falls, Twin Falls County, Idaho, 83303, United States",
    "type": "competitor"
  },
  {
    "recordId": "67153270510",
    "name": "Hamilton Middle",
    "competitor": "Apptegy",
    "domain": "",
    "city": "Baltimore",
    "state": "Maryland",
    "owner": "",
    "createDate": "2025-07-15T15:52:44.984823",
    "lat": 39.3597575,
    "lng": -76.5574871,
    "displayName": "Hamilton Elementary/Middle School, 6101, Old Harford Road, Westfield, Hamilton, Baltimore, Maryland, 21214, United States",
    "type": "competitor"
  },
  {
    "recordId": "67369812704",
    "name": "Chenal Elementary School",
    "competitor": "Apptegy",
    "domain": "",
    "city": "Little Rock",
    "state": "Arkansas",
    "owner": "",
    "createDate": "2025-07-15T15:52:58.829229",
    "lat": 34.7759571,
    "lng": -92.4968315,
    "displayName": "Chenal Elementary School, Denny Road, Wildwood Ridge, Little Rock, Big Rock Township, Pulaski County, Arkansas, 72223, United States",
    "type": "competitor"
  },
  {
    "recordId": "67045374703",
    "name": "Martha Layne Collins High School",
    "competitor": "Apptegy",
    "domain": "",
    "city": "Shelbyville",
    "state": "Kentucky",
    "owner": "",
    "createDate": "2025-07-15T15:53:12.269519",
    "lat": 38.2245546,
    "lng": -85.2733184,
    "displayName": "Martha Layne Collins High School, Midland Industrial Drive, Shelbyville, Shelby County, Kentucky, United States",
    "type": "competitor"
  },
  {
    "recordId": "67045374693",
    "name": "Conway Area Career Center",
    "competitor": "Apptegy",
    "domain": "",
    "city": "Conway",
    "state": "Arkansas",
    "owner": "",
    "createDate": "2025-07-15T15:53:18.803960",
    "lat": 35.0943284,
    "lng": -92.4602495,
    "displayName": "Conway Area Career Center, Bellemeade Drive, Conway, Faulkner County, Arkansas, 72034, United States",
    "type": "competitor"
  },
  {
    "recordId": "67211524814",
    "name": "Baltimore Leadership School for Young Women",
    "competitor": "Apptegy",
    "domain": "",
    "city": "Baltimore",
    "state": "Maryland",
    "owner": "",
    "createDate": "2025-07-15T15:54:07.886192",
    "lat": 39.2953014,
    "lng": -76.618037,
    "displayName": "Baltimore Leadership School for Young Women, West Hamilton Street, Mount Vernon, Baltimore, Maryland, 21201, United States",
    "type": "competitor"
  },
  {
    "recordId": "67360855749",
    "name": "Early Childhood Center",
    "competitor": "Apptegy",
    "domain": "",
    "city": "Kirksville",
    "state": "Missouri",
    "owner": "",
    "createDate": "2025-07-15T15:54:11.384655",
    "lat": 40.1845521,
    "lng": -92.564553,
    "displayName": "Early Childhood Learning Center, East Hamilton Street, Kirksville, Adair County, Missouri, 63501, United States",
    "type": "competitor"
  },
  {
    "recordId": "67360855748",
    "name": "K.A.S.A. (Knowledge and Success Academy)",
    "competitor": "Apptegy",
    "domain": "",
    "city": "San Francisco",
    "state": "California",
    "owner": "",
    "createDate": "2025-07-15T15:54:14.489421",
    "lat": 37.7084908,
    "lng": -122.4332841,
    "displayName": "Baltimore Way, San Francisco, San Mateo County, California, 94112, United States",
    "type": "competitor"
  },
  {
    "recordId": "67350287077",
    "name": "East Rockingham High",
    "competitor": "Apptegy",
    "domain": "",
    "city": "Elkton",
    "state": "Virginia",
    "owner": "",
    "createDate": "2025-07-15T15:54:30.358885",
    "lat": 38.3981108,
    "lng": -78.6526671,
    "displayName": "East Rockingham High School, Rockingham Pike, Solsburg, Elkton, Rockingham County, Virginia, 22827, United States",
    "type": "competitor"
  },
  {
    "recordId": "66455290593",
    "name": "Central Primary School",
    "competitor": "Apptegy",
    "domain": "",
    "city": "Washington",
    "state": "Illinois",
    "owner": "",
    "createDate": "2025-07-15T15:54:33.146773",
    "lat": 40.7073739,
    "lng": -89.4254924,
    "displayName": "Central Primary School, 1400, Newcastle Road, Washington, Tazewell County, Illinois, 61571, United States",
    "type": "competitor"
  },
  {
    "recordId": "67211524804",
    "name": "Lakeshore Elementary School",
    "competitor": "Apptegy",
    "domain": "",
    "city": "Houston",
    "state": "Texas",
    "owner": "",
    "createDate": "2025-07-15T15:55:12.076396",
    "lat": 29.9628082,
    "lng": -95.1705155,
    "displayName": "Lakeshore Elementary School, 13333, Breakwater Path Drive, Houston, Harris County, Texas, 77044, United States",
    "type": "competitor"
  },
  {
    "recordId": "67153269495",
    "name": "Carl Albert Ms",
    "competitor": "Apptegy",
    "domain": "",
    "city": "Midwest City",
    "state": "Oklahoma",
    "owner": "",
    "createDate": "2025-07-15T15:55:32.516047",
    "lat": 35.4393411,
    "lng": -97.3545113,
    "displayName": "Carl Albert Middle School, South Post Road, Midwest City, Oklahoma County, Oklahoma, 73130, United States",
    "type": "competitor"
  },
  {
    "recordId": "67153269487",
    "name": "Chief Umtuch Middle",
    "competitor": "Apptegy",
    "domain": "",
    "city": "Battle Ground",
    "state": "Washington",
    "owner": "",
    "createDate": "2025-07-15T15:55:48.129104",
    "lat": 45.7872854,
    "lng": -122.545847,
    "displayName": "Chief Umtuch Middle School, Northwest 9th Street, Battle Ground, Clark County, Washington, 98604, United States",
    "type": "competitor"
  },
  {
    "recordId": "66455290578",
    "name": "Baltimore Montessori Public Charter School",
    "competitor": "Apptegy",
    "domain": "",
    "city": "Baltimore",
    "state": "Maryland",
    "owner": "",
    "createDate": "2025-07-15T15:56:01.461155",
    "lat": 39.3087139,
    "lng": -76.612537,
    "displayName": "Baltimore Montessori Public Charter School, 1600, Guilford Avenue, Greenmount West, Baltimore, Maryland, 21202, United States",
    "type": "competitor"
  },
  {
    "recordId": "67368012504",
    "name": "North DeSoto Upper Elementary",
    "competitor": "Apptegy",
    "domain": "",
    "city": "Stonewall",
    "state": "Louisiana",
    "owner": "",
    "createDate": "2025-07-15T15:56:09.333007",
    "lat": 32.2357902,
    "lng": -93.8268761,
    "displayName": "North DeSoto Upper Elementary School, 2535, US 171, Stonewall, DeSoto Parish, Louisiana, 71078, United States",
    "type": "competitor"
  },
  {
    "recordId": "67045373663",
    "name": "Quest Charter School Academy",
    "competitor": "Apptegy",
    "domain": "",
    "city": "Peoria",
    "state": "Illinois",
    "owner": "",
    "createDate": "2025-07-15T15:56:15.682713",
    "lat": 40.7186662,
    "lng": -89.6143289,
    "displayName": "Quest Charter Academy, 2503, North University Street, Sunset Hills, Peoria, Peoria County, Illinois, 61604, United States",
    "type": "competitor"
  },
  {
    "recordId": "66576901857",
    "name": "Monroney Ms",
    "competitor": "Apptegy",
    "domain": "",
    "city": "Oklahoma City",
    "state": "Oklahoma",
    "owner": "",
    "createDate": "2025-07-15T15:56:18.715539",
    "lat": 35.5303508,
    "lng": -97.6380623,
    "displayName": "Monroney Street, Oklahoma City, Oklahoma County, Oklahoma, 73008, United States",
    "type": "competitor"
  },
  {
    "recordId": "67292258016",
    "name": "Wintonbury Early Childhood Magnet School",
    "competitor": "Apptegy",
    "domain": "",
    "city": "Bloomfield",
    "state": "Connecticut",
    "owner": "",
    "createDate": "2025-07-15T15:56:21.325791",
    "lat": 41.8386568,
    "lng": -72.7444853,
    "displayName": "Wintonbury Early Childhood Magnet School, Ryefield Hollow Drive, Bloomfield, Capitol Planning Region, Connecticut, 06002, United States",
    "type": "competitor"
  },
  {
    "recordId": "67350287049",
    "name": "Amy Biehl Community School",
    "competitor": "Apptegy",
    "domain": "",
    "city": "Rancho Viejo",
    "state": "New Mexico",
    "owner": "",
    "createDate": "2025-07-15T15:56:23.821160",
    "lat": 35.6003014,
    "lng": -106.0086308,
    "displayName": "Amy Biehl Community School, 301, Avenida del Sur, Rancho Viejo, Santa Fe County, New Mexico, 87508, United States",
    "type": "competitor"
  },
  {
    "recordId": "67243436787",
    "name": "Luray Middle",
    "competitor": "Apptegy",
    "domain": "",
    "city": "Luray",
    "state": "Virginia",
    "owner": "",
    "createDate": "2025-07-15T15:56:31.964243",
    "lat": 38.6593469,
    "lng": -78.4569441,
    "displayName": "Luray Middle School, 14, Luray Avenue, Luray, Page County, Virginia, 22835, United States",
    "type": "competitor"
  },
  {
    "recordId": "67350286072",
    "name": "Syracuse High",
    "competitor": "Apptegy",
    "domain": "",
    "city": "Syracuse",
    "state": "Utah",
    "owner": "",
    "createDate": "2025-07-15T15:56:50.051465",
    "lat": 41.1049936,
    "lng": -112.0608127,
    "displayName": "Syracuse High School, North 2000 West, Syracuse, Davis County, Utah, 84075, United States",
    "type": "competitor"
  },
  {
    "recordId": "67316238019",
    "name": "Bob Folsom Elementary School",
    "competitor": "Apptegy",
    "domain": "",
    "city": "Farmington",
    "state": "Arkansas",
    "owner": "",
    "createDate": "2025-07-15T15:56:56.643444",
    "lat": 36.0344259,
    "lng": -94.2554077,
    "displayName": "Bob Folsom Elementary School, West Tyler Road, The Grove at Engles Mill, Farmington, Washington County, Arkansas, 72730, United States",
    "type": "competitor"
  },
  {
    "recordId": "66576901835",
    "name": "Bear Creek Elementary School",
    "competitor": "Apptegy",
    "domain": "",
    "city": "Monument",
    "state": "Colorado",
    "owner": "",
    "createDate": "2025-07-15T15:56:59.148387",
    "lat": 39.0672297,
    "lng": -104.8423483,
    "displayName": "Bear Creek Elementary School, Windy Creek Drive, Monument, El Paso County, Colorado, 80132, United States",
    "type": "competitor"
  },
  {
    "recordId": "67360854724",
    "name": "Marion Home School",
    "competitor": "Apptegy",
    "domain": "",
    "city": "Marion",
    "state": "Indiana",
    "owner": "",
    "createDate": "2025-07-15T15:57:13.402933",
    "lat": 40.524207,
    "lng": -85.6363654,
    "displayName": "Evans School, East 38th Street, Home Corner, Marion, Grant County, Indiana, 46953, United States",
    "type": "competitor"
  },
  {
    "recordId": "67346757351",
    "name": "Bloomfield Middle",
    "competitor": "Apptegy",
    "domain": "",
    "city": "Bloomfield",
    "state": "New Jersey",
    "owner": "",
    "createDate": "2025-07-15T15:57:21.626908",
    "lat": 40.8243923,
    "lng": -74.1834804,
    "displayName": "Bloomfield Middle School, Footpath from 102 Hobson St. to Bloomfield Middle School, Bloomfield, Essex County, New Jersey, 07003, United States",
    "type": "competitor"
  },
  {
    "recordId": "67045372664",
    "name": "Grove Elementary",
    "competitor": "Apptegy",
    "domain": "",
    "city": "Marysville",
    "state": "Washington",
    "owner": "",
    "createDate": "2025-07-15T15:57:27.205144",
    "lat": 48.0639058,
    "lng": -122.1428556,
    "displayName": "Grove Elementary, 66th Avenue Northeast, Marysville, Snohomish County, Washington, 98270, United States",
    "type": "competitor"
  },
  {
    "recordId": "67211522805",
    "name": "Bishop Ward High School",
    "competitor": "Apptegy",
    "domain": "",
    "city": "Kansas City",
    "state": "Kansas",
    "owner": "",
    "createDate": "2025-07-15T15:57:47.415255",
    "lat": 39.1131141,
    "lng": -94.6502459,
    "displayName": "Bishop Ward High School, Ann Avenue, Westheight, Kansas City, Wyandotte County, Kansas, 66102, United States",
    "type": "competitor"
  },
  {
    "recordId": "67311990479",
    "name": "Foxboro School",
    "competitor": "Apptegy",
    "domain": "",
    "city": "North Salt Lake",
    "state": "Utah",
    "owner": "",
    "createDate": "2025-07-15T15:58:06.962746",
    "lat": 40.8536958,
    "lng": -111.9411549,
    "displayName": "Foxboro Elementary School, Foxboro Drive, North Salt Lake, Davis County, Utah, 84087, United States",
    "type": "competitor"
  },
  {
    "recordId": "66576900857",
    "name": "Ocean Beach Early Childhood Center",
    "competitor": "Apptegy",
    "domain": "",
    "city": "Long Beach",
    "state": "Washington",
    "owner": "",
    "createDate": "2025-07-15T15:58:12.467822",
    "lat": 46.34871,
    "lng": -124.0519732,
    "displayName": "Ocean Beach Early Childhood Center, 5th Street Southeast, Long Beach, Pacific County, Washington, 98631, United States",
    "type": "competitor"
  },
  {
    "recordId": "67346756336",
    "name": "Early Childhood",
    "competitor": "Apptegy",
    "domain": "",
    "city": "City of New Rochelle",
    "state": "New York",
    "owner": "",
    "createDate": "2025-07-15T15:58:35.293282",
    "lat": 40.9327602,
    "lng": -73.7729305,
    "displayName": "Bernard Early Childhood Center, 129, Barnard Road, Rochelle Heights, Beechmont, City of New Rochelle, Westchester County, New York, 10801, United States",
    "type": "competitor"
  },
  {
    "recordId": "67243435763",
    "name": "Maple Grove Elementary",
    "competitor": "Apptegy",
    "domain": "",
    "city": "Warrensburg",
    "state": "Missouri",
    "owner": "",
    "createDate": "2025-07-15T15:58:38.023447",
    "lat": 38.7502721,
    "lng": -93.7182791,
    "displayName": "Maple Grove Elementary School, 950, Hamilton Street, Brookside Place, Warrensburg, Johnson County, Missouri, 64093, United States",
    "type": "competitor"
  },
  {
    "recordId": "67350285021",
    "name": "Weir Elementary School",
    "competitor": "Apptegy",
    "domain": "",
    "city": "Weir",
    "state": "Mississippi",
    "owner": "",
    "createDate": "2025-07-15T15:58:40.591395",
    "lat": 33.264014,
    "lng": -89.2909022,
    "displayName": "Weir Elementary School, Marion Kelly Drive, Weir, Choctaw County, Mississippi, 39735, United States",
    "type": "competitor"
  },
  {
    "recordId": "67243435762",
    "name": "Ellison Park School",
    "competitor": "Apptegy",
    "domain": "",
    "city": "Layton",
    "state": "Utah",
    "owner": "",
    "createDate": "2025-07-15T15:58:43.760496",
    "lat": 41.0592949,
    "lng": -111.9726573,
    "displayName": "Layton Elementary School, 369, West Gentile Street, Cook, Layton, Davis County, Utah, 84041, United States",
    "type": "competitor"
  },
  {
    "recordId": "67211522766",
    "name": "Mattanawcook Jr High School",
    "competitor": "Apptegy",
    "domain": "",
    "city": "Lincoln",
    "state": "Maine",
    "owner": "",
    "createDate": "2025-07-15T15:58:45.371332",
    "lat": 45.3654473,
    "lng": -68.4996846,
    "displayName": "Mattanawcook Junior High School, 45, School Street, Lincoln, Penobscot County, Maine, 04457, United States",
    "type": "competitor"
  },
  {
    "recordId": "67211522755",
    "name": "Harriet Beecher Stowe Elementary",
    "competitor": "Apptegy",
    "domain": "",
    "city": "Brunswick",
    "state": "Maine",
    "owner": "",
    "createDate": "2025-07-15T15:59:06.730461",
    "lat": 43.9081028,
    "lng": -69.9729348,
    "displayName": "Harriet Beecher Stowe Elementary School, 44, McKeen Street, Brunswick, Cumberland County, Maine, 04011, United States",
    "type": "competitor"
  },
  {
    "recordId": "67045371620",
    "name": "The Academy",
    "competitor": "Apptegy",
    "domain": "",
    "city": "Milford Mill",
    "state": "Maryland",
    "owner": "",
    "createDate": "2025-07-15T15:59:09.523015",
    "lat": 39.3549464,
    "lng": -76.7667326,
    "displayName": "The Rock Junior Academy, North Rolling Road, Rockdale, Milford Mill, Baltimore County, Maryland, 21244, United States",
    "type": "competitor"
  },
  {
    "recordId": "67153268436",
    "name": "Townley Elementary School",
    "competitor": "Apptegy",
    "domain": "",
    "city": "Fort Worth",
    "state": "Texas",
    "owner": "",
    "createDate": "2025-07-15T15:59:16.768891",
    "lat": 32.602681,
    "lng": -97.2833848,
    "displayName": "Townley Elementary School, 2200, McPherson Road, Fort Worth, Tarrant County, Texas, 76140, United States",
    "type": "competitor"
  },
  {
    "recordId": "67350284986",
    "name": "Reynolds Middle",
    "competitor": "Apptegy",
    "domain": "",
    "city": "Prosper",
    "state": "Texas",
    "owner": "",
    "createDate": "2025-07-15T15:59:41.783819",
    "lat": 33.2427632,
    "lng": -96.7987161,
    "displayName": "Reynolds Middle School, North Coleman Street, Crestview at Prosper, Prosper, Collin County, Texas, 75078, United States",
    "type": "competitor"
  },
  {
    "recordId": "67243435722",
    "name": "Baltimore International Academy",
    "competitor": "Apptegy",
    "domain": "",
    "city": "Baltimore",
    "state": "Maryland",
    "owner": "",
    "createDate": "2025-07-15T15:59:44.581007",
    "lat": 39.298146,
    "lng": -76.6924311,
    "displayName": "Baltimore International Academy West, Sidehill Road, Rognel Heights, Baltimore, Maryland, 21229, United States",
    "type": "competitor"
  },
  {
    "recordId": "66455289559",
    "name": "van Wert Elementary School",
    "competitor": "Apptegy",
    "domain": "",
    "city": "Rockmart",
    "state": "Georgia",
    "owner": "",
    "createDate": "2025-07-15T15:59:52.308841",
    "lat": 33.9894736,
    "lng": -85.0392736,
    "displayName": "Van Wert Elementary School, 370, Atlanta Highway, Rockmart, Polk County, Georgia, 30153, United States",
    "type": "competitor"
  },
  {
    "recordId": "66455289554",
    "name": "Noel Primary",
    "competitor": "Apptegy",
    "domain": "",
    "city": "Noel",
    "state": "Missouri",
    "owner": "",
    "createDate": "2025-07-15T16:00:06.393301",
    "lat": 36.5446581,
    "lng": -94.5236244,
    "displayName": "Noel Primary School, 14762, MO 90, Spring Valley, Noel, McDonald County, Missouri, 64854, United States",
    "type": "competitor"
  },
  {
    "recordId": "67350284008",
    "name": "Schuyler Elementary School",
    "competitor": "Apptegy",
    "domain": "",
    "city": "Kearny",
    "state": "New Jersey",
    "owner": "",
    "createDate": "2025-07-15T16:00:21.216669",
    "lat": 40.7739465,
    "lng": -74.1342202,
    "displayName": "Schuyler Elementary School, Schuyler Avenue, Arlington, Kearny, Hudson County, New Jersey, 07032, United States",
    "type": "competitor"
  },
  {
    "recordId": "66455289536",
    "name": "Rockville Elementary School",
    "competitor": "Apptegy",
    "domain": "",
    "city": "Louisburg",
    "state": "Kansas",
    "owner": "",
    "createDate": "2025-07-15T16:00:32.052113",
    "lat": 38.6288547,
    "lng": -94.6552852,
    "displayName": "Rockville Elementary School, Rockville Road, Louisburg, Miami County, Kansas, 66053, United States",
    "type": "competitor"
  },
  {
    "recordId": "67153267428",
    "name": "Topsail Elementary",
    "competitor": "Apptegy",
    "domain": "",
    "city": "Hampstead",
    "state": "North Carolina",
    "owner": "",
    "createDate": "2025-07-15T16:01:08.841010",
    "lat": 34.3954976,
    "lng": -77.6785205,
    "displayName": "Topsail Annandale Elementary School, 17385, US Highway 17, Hampstead, Pender County, North Carolina, 28443, United States",
    "type": "competitor"
  },
  {
    "recordId": "67153267424",
    "name": "Hicks Elementary School",
    "competitor": "Apptegy",
    "domain": "",
    "city": "Corpus Christi",
    "state": "Texas",
    "owner": "",
    "createDate": "2025-07-15T16:01:18.440857",
    "lat": 27.7289228,
    "lng": -97.4021922,
    "displayName": "Hicks Elementary School, 3602, McArdle Road, Corpus Christi, Nueces County, Texas, 78415, United States",
    "type": "competitor"
  },
  {
    "recordId": "67369809621",
    "name": "Charles Baxter Junior High School",
    "competitor": "Apptegy",
    "domain": "",
    "city": "Fort Worth",
    "state": "Texas",
    "owner": "",
    "createDate": "2025-07-15T16:01:25.043702",
    "lat": 32.6212812,
    "lng": -97.2716193,
    "displayName": "Charles Baxter Junior High School, 3038, Shelby Road, Fort Worth, Tarrant County, Texas, 76140, United States",
    "type": "competitor"
  },
  {
    "recordId": "67369809620",
    "name": "Rice Intermediate/Middle School",
    "competitor": "Apptegy",
    "domain": "",
    "city": "Rice",
    "state": "Texas",
    "owner": "",
    "createDate": "2025-07-15T16:01:37.047736",
    "lat": 32.2246204,
    "lng": -96.4885257,
    "displayName": "Rice Intermediate Middle School, 1402, Southwest McKinney Street, Rice, Navarro County, Texas, 75155, United States",
    "type": "competitor"
  },
  {
    "recordId": "67153267416",
    "name": "Buffalo Point School",
    "competitor": "Apptegy",
    "domain": "",
    "city": "Syracuse",
    "state": "Utah",
    "owner": "",
    "createDate": "2025-07-15T16:01:40.083484",
    "lat": 41.0861518,
    "lng": -112.0960247,
    "displayName": "Buffalo Point Elementary School, 1924, South Doral Drive, Syracuse, Davis County, Utah, 84075, United States",
    "type": "competitor"
  },
  {
    "recordId": "67360852689",
    "name": "River View High School",
    "competitor": "Apptegy",
    "domain": "",
    "city": "Bradshaw",
    "state": "West Virginia",
    "owner": "",
    "createDate": "2025-07-15T16:02:04.491522",
    "lat": 37.3576718,
    "lng": -81.8017288,
    "displayName": "River View High School, Mountaineer Highway, Dan, Bradshaw, McDowell County, West Virginia, 24811, United States",
    "type": "competitor"
  },
  {
    "recordId": "66576899801",
    "name": "Rayen Early College",
    "competitor": "Apptegy",
    "domain": "",
    "city": "Youngstown",
    "state": "Ohio",
    "owner": "",
    "createDate": "2025-07-15T16:03:01.482465",
    "lat": 41.1024589,
    "lng": -80.6484034,
    "displayName": "Youngstown Rayen Early College High School, ADA Ramp, YSU, Youngstown, Mahoning County, Ohio, 44503, United States",
    "type": "competitor"
  },
  {
    "recordId": "67211520723",
    "name": "Unity Elementary School",
    "competitor": "Apptegy",
    "domain": "",
    "city": "Sioux City",
    "state": "Iowa",
    "owner": "",
    "createDate": "2025-07-15T16:03:53.535382",
    "lat": 42.51002,
    "lng": -96.3687125,
    "displayName": "Unity Elementary School, Cecelia Street, Sioux City, Woodbury County, Iowa, 51105, United States",
    "type": "competitor"
  },
  {
    "recordId": "67243433699",
    "name": "Lincoln Parish Early Childhood Center",
    "competitor": "Apptegy",
    "domain": "",
    "city": "Ruston",
    "state": "Louisiana",
    "owner": "",
    "createDate": "2025-07-15T16:04:03.316693",
    "lat": 32.5299684,
    "lng": -92.6275247,
    "displayName": "Lincoln Parish Early Childhood Center, East Mississippi Avenue, Ruston, Lincoln Parish, Louisiana, 71270, United States",
    "type": "competitor"
  },
  {
    "recordId": "67368008394",
    "name": "Lincoln Parish Early Childhood Center",
    "competitor": "Apptegy",
    "domain": "",
    "city": "Ruston",
    "state": "Louisiana",
    "owner": "",
    "createDate": "2025-07-15T16:04:05.934126",
    "lat": 32.5299684,
    "lng": -92.6275247,
    "displayName": "Lincoln Parish Early Childhood Center, East Mississippi Avenue, Ruston, Lincoln Parish, Louisiana, 71270, United States",
    "type": "competitor"
  },
  {
    "recordId": "67364454090",
    "name": "Tunbridge Public Charter School",
    "competitor": "Apptegy",
    "domain": "",
    "city": "Baltimore",
    "state": "Maryland",
    "owner": "",
    "createDate": "2025-07-15T16:04:08.534030",
    "lat": 39.3575807,
    "lng": -76.6105042,
    "displayName": "Tunbridge Public Charter School, 5504, York Road, Homeland, Greater Govans, Baltimore, Maryland, 21212, United States",
    "type": "competitor"
  },
  {
    "recordId": "67153266402",
    "name": "Gladstone Center for Children and Families",
    "competitor": "Apptegy",
    "domain": "",
    "city": "Gladstone",
    "state": "Oregon",
    "owner": "",
    "createDate": "2025-07-15T16:04:19.128932",
    "lat": 45.3848335,
    "lng": -122.5984987,
    "displayName": "Gladstone Center for Children and Families, 18905, Portland Avenue, Glen Echo, Gladstone, Clackamas County, Oregon, 97027, United States",
    "type": "competitor"
  },
  {
    "recordId": "67243433693",
    "name": "Morrison Ms",
    "competitor": "Apptegy",
    "domain": "",
    "city": "Town of Morrison",
    "state": "Wisconsin",
    "owner": "",
    "createDate": "2025-07-15T16:04:27.663748",
    "lat": 44.2991594,
    "lng": -87.9889874,
    "displayName": "Morrison, Town of Morrison, Brown County, Wisconsin, 54126, United States",
    "type": "competitor"
  },
  {
    "recordId": "67362652882",
    "name": "Victoria East High School",
    "competitor": "Apptegy",
    "domain": "",
    "city": "London",
    "state": "England",
    "owner": "",
    "createDate": "2025-07-15T16:04:42.686090",
    "lat": 51.6491006,
    "lng": -0.1681604,
    "displayName": "St. Margaret's Nursery School, Victoria Avenue, New Barnet, London Borough of Barnet, London, Greater London, England, EN4 9PD, United Kingdom",
    "type": "competitor"
  },
  {
    "recordId": "67369808595",
    "name": "Alton Elementary School",
    "competitor": "Apptegy",
    "domain": "",
    "city": "Alton",
    "state": "Texas",
    "owner": "",
    "createDate": "2025-07-15T16:05:02.833506",
    "lat": 26.2885412,
    "lng": -98.3101114,
    "displayName": "Alton Elementary School, 205, South Chicago Street, Salas Colonia, Alton, Hidalgo County, Texas, 78574, United States",
    "type": "competitor"
  },
  {
    "recordId": "67368007406",
    "name": "South Gibson County High School",
    "competitor": "Apptegy",
    "domain": "",
    "city": "Medina",
    "state": "Tennessee",
    "owner": "",
    "createDate": "2025-07-15T16:05:12.081873",
    "lat": 35.8198448,
    "lng": -88.8038092,
    "displayName": "South Gibson County High School, Mount Zion Gravel Road, Medina, Gibson County, West Tennessee, Tennessee, 38355, United States",
    "type": "competitor"
  },
  {
    "recordId": "67243432694",
    "name": "Palmer Ridge High School",
    "competitor": "Apptegy",
    "domain": "",
    "city": "Monument",
    "state": "Colorado",
    "owner": "",
    "createDate": "2025-07-15T16:05:54.381507",
    "lat": 39.1125574,
    "lng": -104.862094,
    "displayName": "Palmer Ridge High School, 19255, Monument Hill Road, Monument, El Paso County, Colorado, 80132, United States",
    "type": "competitor"
  },
  {
    "recordId": "67360851649",
    "name": "Truman Primary School",
    "competitor": "Apptegy",
    "domain": "",
    "city": "Norman",
    "state": "Oklahoma",
    "owner": "",
    "createDate": "2025-07-15T16:06:28.559920",
    "lat": 35.2268866,
    "lng": -97.5058581,
    "displayName": "Truman Primary School, 601, Meadow Ridge Road, Brookhaven, Norman, Cleveland County, Oklahoma, 73072, United States",
    "type": "competitor"
  },
  {
    "recordId": "67368007358",
    "name": "Walton-Verona Middle School",
    "competitor": "Apptegy",
    "domain": "",
    "city": "Walton",
    "state": "Kentucky",
    "owner": "",
    "createDate": "2025-07-15T16:06:31.741849",
    "lat": 38.8637923,
    "lng": -84.61896,
    "displayName": "Walton-Verona Middle School, School Road, Walton, Boone County, Kentucky, 41094, United States",
    "type": "competitor"
  },
  {
    "recordId": "67360850670",
    "name": "Snow Horse School",
    "competitor": "Apptegy",
    "domain": "",
    "city": "Kaysville",
    "state": "Utah",
    "owner": "",
    "createDate": "2025-07-15T16:07:25.308475",
    "lat": 41.0217328,
    "lng": -111.9605758,
    "displayName": "Snow Horse Elementary, South Angel Street, Kaysville, Davis County, Utah, 84037, United States",
    "type": "competitor"
  },
  {
    "recordId": "67211519694",
    "name": "Legacy Junior High School",
    "competitor": "Apptegy",
    "domain": "",
    "city": "Layton",
    "state": "Utah",
    "owner": "",
    "createDate": "2025-07-15T16:07:28.719550",
    "lat": 41.0659094,
    "lng": -112.028127,
    "displayName": "Legacy Junior High School, West Hill Field Road, Westfield Estates, Layton, Davis County, Utah, 84041, United States",
    "type": "competitor"
  },
  {
    "recordId": "67045369530",
    "name": "East High School",
    "competitor": "Apptegy",
    "domain": "",
    "city": "Youngstown",
    "state": "Ohio",
    "owner": "",
    "createDate": "2025-07-15T16:07:42.848119",
    "lat": 41.1036603,
    "lng": -80.6217733,
    "displayName": "East High School, East High Avenue, East High, East Side, Youngstown, Mahoning County, Ohio, 44505, United States",
    "type": "competitor"
  },
  {
    "recordId": "67362651859",
    "name": "Fairfield High School",
    "competitor": "Apptegy",
    "domain": "",
    "city": "",
    "state": "Kansas",
    "owner": "",
    "createDate": "2025-07-15T16:07:45.587443",
    "lat": 37.8694576,
    "lng": -98.3239351,
    "displayName": "Fairfield High School, South Langdon Road, Langdon, Reno County, Kansas, United States",
    "type": "competitor"
  },
  {
    "recordId": "67292253914",
    "name": "Crossroads Elementary",
    "competitor": "Apptegy",
    "domain": "",
    "city": "Mount Washington",
    "state": "Kentucky",
    "owner": "",
    "createDate": "2025-07-15T16:07:53.728973",
    "lat": 38.047143,
    "lng": -85.5470335,
    "displayName": "Crossroads Elementary, 156, Erin Circle, Mount Washington, Bullitt County, Kentucky, 40047, United States",
    "type": "competitor"
  },
  {
    "recordId": "67316234948",
    "name": "Pine Grove Middle School",
    "competitor": "Apptegy",
    "domain": "",
    "city": "Valdosta",
    "state": "Georgia",
    "owner": "",
    "createDate": "2025-07-15T16:08:05.581793",
    "lat": 30.9580259,
    "lng": -83.2617174,
    "displayName": "Pine Grove Middle School, 4159, River Road, Valdosta, Lowndes County, Georgia, 31605, United States",
    "type": "competitor"
  },
  {
    "recordId": "67153264354",
    "name": "Cesar Chavez Elementary",
    "competitor": "Apptegy",
    "domain": "",
    "city": "Greenfield",
    "state": "California",
    "owner": "",
    "createDate": "2025-07-15T16:08:29.442142",
    "lat": 36.3313115,
    "lng": -121.2345977,
    "displayName": "Cesar Chavez Elementary School, Apple Avenue, Greenfield, Monterey County, California, 93927, United States",
    "type": "competitor"
  },
  {
    "recordId": "67369806577",
    "name": "Victoria West High School",
    "competitor": "Apptegy",
    "domain": "",
    "city": "Melbourne",
    "state": "Victoria",
    "owner": "",
    "createDate": "2025-07-15T16:08:32.412578",
    "lat": -37.6868044,
    "lng": 144.5414259,
    "displayName": "OneSchool Global Melton Campus, 775, High Street, Melton West, Melbourne, City of Melton, Victoria, 3337, Australia",
    "type": "competitor"
  },
  {
    "recordId": "67350281928",
    "name": "Heritage High School",
    "competitor": "Apptegy",
    "domain": "",
    "city": "Palm Bay",
    "state": "Florida",
    "owner": "",
    "createDate": "2025-07-15T16:08:38.904246",
    "lat": 28.0032474,
    "lng": -80.7434761,
    "displayName": "Heritage High School, Pinwherry Street Northwest, Saint John's Preserve, Palm Bay, Brevard County, Florida, United States",
    "type": "competitor"
  },
  {
    "recordId": "67369806555",
    "name": "Hutchinson Middle School - 7",
    "competitor": "Apptegy",
    "domain": "",
    "city": "Hutchinson",
    "state": "Kansas",
    "owner": "",
    "createDate": "2025-07-15T16:09:13.941453",
    "lat": 38.051678,
    "lng": -97.9269965,
    "displayName": "Hutchinson Middle School - 7, East Sherman Avenue, Hutchinson, Reno County, Kansas, 67504, United States",
    "type": "competitor"
  },
  {
    "recordId": "67153264342",
    "name": "Endeavour School",
    "competitor": "Apptegy",
    "domain": "",
    "city": "Kaysville",
    "state": "Utah",
    "owner": "",
    "createDate": "2025-07-15T16:09:20.210831",
    "lat": 41.0031877,
    "lng": -111.9397023,
    "displayName": "Endeavour Elementary School, South Lake Ridge Drive, Kaysville, Davis County, Utah, 84412, United States",
    "type": "competitor"
  },
  {
    "recordId": "66455287526",
    "name": "Dumas Intermediate School",
    "competitor": "Apptegy",
    "domain": "",
    "city": "Dumas",
    "state": "Texas",
    "owner": "",
    "createDate": "2025-07-15T16:09:28.888076",
    "lat": 35.8623116,
    "lng": -101.9538742,
    "displayName": "Dumas Intermediate School, East 5th Street, Dumas, Moore County, Texas, 79029, United States",
    "type": "competitor"
  },
  {
    "recordId": "67292252911",
    "name": "eStem Charter High School",
    "competitor": "Apptegy",
    "domain": "",
    "city": "Little Rock",
    "state": "Arkansas",
    "owner": "",
    "createDate": "2025-07-15T16:10:04.814681",
    "lat": 34.7208681,
    "lng": -92.3410158,
    "displayName": "eStem Charter High School, 2801, South University Avenue, College Terrace, Oak Forest, Little Rock, Big Rock Township, Pulaski County, Arkansas, 72204, United States",
    "type": "competitor"
  },
  {
    "recordId": "66455287515",
    "name": "Kerr Ms",
    "competitor": "Apptegy",
    "domain": "",
    "city": "Oklahoma City",
    "state": "Oklahoma",
    "owner": "",
    "createDate": "2025-07-15T16:10:22.936249",
    "lat": 35.4777794,
    "lng": -97.5124662,
    "displayName": "Kerr Automotive Imports, Oklahoma City, Oklahoma County, Oklahoma, United States",
    "type": "competitor"
  },
  {
    "recordId": "67311987435",
    "name": "Brewer Community School",
    "competitor": "Apptegy",
    "domain": "",
    "city": "Brewer",
    "state": "Maine",
    "owner": "",
    "createDate": "2025-07-15T16:10:26.725033",
    "lat": 44.7775856,
    "lng": -68.7716313,
    "displayName": "Brewer Community School, 92, Pendleton Street, South Brewer, Brewer, Penobscot County, Maine, 04412, United States",
    "type": "competitor"
  },
  {
    "recordId": "66455287502",
    "name": "Wahluke Junior High",
    "competitor": "Apptegy",
    "domain": "",
    "city": "Mattawa",
    "state": "Washington",
    "owner": "",
    "createDate": "2025-07-15T16:10:33.959672",
    "lat": 46.7427266,
    "lng": -119.8968407,
    "displayName": "Wahluke Junior High School, 502, Boundary Avenue, Mattawa, Grant County, Washington, 99349, United States",
    "type": "competitor"
  },
  {
    "recordId": "66455287498",
    "name": "Real School",
    "competitor": "Apptegy",
    "domain": "",
    "city": "Brunswick",
    "state": "Maine",
    "owner": "",
    "createDate": "2025-07-15T16:10:36.621801",
    "lat": 43.8991648,
    "lng": -69.9287918,
    "displayName": "REAL School, 17, Seahawk Avenue, Brunswick, Cumberland County, Maine, 04011, United States",
    "type": "competitor"
  },
  {
    "recordId": "67311987423",
    "name": "Brookland Middle School",
    "competitor": "Apptegy",
    "domain": "",
    "city": "Brookland",
    "state": "Arkansas",
    "owner": "",
    "createDate": "2025-07-15T16:10:45.281941",
    "lat": 35.9153472,
    "lng": -90.5839786,
    "displayName": "Brookland Middle School, North Oak Street, Brookland, Craighead County, Arkansas, 72417, United States",
    "type": "competitor"
  },
  {
    "recordId": "67368005323",
    "name": "Sharon Ms",
    "competitor": "Apptegy",
    "domain": "",
    "city": "Sharon",
    "state": "Pennsylvania",
    "owner": "",
    "createDate": "2025-07-15T16:10:48.479010",
    "lat": 41.2310161,
    "lng": -80.511709,
    "displayName": "Sharon City Center, Sharon, Mercer County, Pennsylvania, United States",
    "type": "competitor"
  },
  {
    "recordId": "67316233929",
    "name": "Flat Rock Elementary",
    "competitor": "Apptegy",
    "domain": "",
    "city": "",
    "state": "South Carolina",
    "owner": "",
    "createDate": "2025-07-15T16:11:02.941189",
    "lat": 34.4089742,
    "lng": -82.6426915,
    "displayName": "Flat Rock Elementary School, Flat Rock Road, Flat Rock, Anderson County, South Carolina, United States",
    "type": "competitor"
  },
  {
    "recordId": "67364452031",
    "name": "Midland Christian School",
    "competitor": "Apptegy",
    "domain": "",
    "city": "Midland",
    "state": "Texas",
    "owner": "",
    "createDate": "2025-07-15T16:11:11.296134",
    "lat": 32.008921,
    "lng": -102.1162775,
    "displayName": "Midland Christian School, 2001, Culver Drive, Ma-Mar Heights, Midland, Midland County, Texas, 79705, United States",
    "type": "competitor"
  },
  {
    "recordId": "67211512522",
    "name": "New Braunfels Christian Academy",
    "competitor": "Apptegy",
    "domain": "",
    "city": "New Braunfels",
    "state": "Texas",
    "owner": "",
    "createDate": "2025-07-15T16:11:26.179746",
    "lat": 29.7189249,
    "lng": -98.1832593,
    "displayName": "New Braunfels Christian Academy, 220, Farm-to-Market Road 1863, Hunters Creek, New Braunfels, Comal County, Texas, 78132, United States",
    "type": "competitor"
  },
  {
    "recordId": "67362643672",
    "name": "Sacred Heart High School",
    "competitor": "Apptegy",
    "domain": "",
    "city": "Los Angeles",
    "state": "California",
    "owner": "",
    "createDate": "2025-07-15T16:11:28.950429",
    "lat": 34.0700109,
    "lng": -118.2134062,
    "displayName": "Sacred Heart High School, Baldwin Street, Lincoln Heights, Los Angeles, Los Angeles County, California, 90031, United States",
    "type": "competitor"
  },
  {
    "recordId": "67292245735",
    "name": "Clarks Creek Elementary",
    "competitor": "Apptegy",
    "domain": "",
    "city": "Plainfield",
    "state": "Indiana",
    "owner": "",
    "createDate": "2025-07-15T16:11:37.190479",
    "lat": 39.7035719,
    "lng": -86.3756011,
    "displayName": "Clarks Creek Elementary, Craig Street, Plainfield, Hendricks County, Indiana, 46168, United States",
    "type": "competitor"
  },
  {
    "recordId": "67243422416",
    "name": "Freedom Elementary School",
    "competitor": "Apptegy",
    "domain": "",
    "city": "Plainfield",
    "state": "Illinois",
    "owner": "",
    "createDate": "2025-07-15T16:11:44.759626",
    "lat": 41.6722112,
    "lng": -88.2122043,
    "displayName": "Freedom Elementary School, 11600, Heritage Meadows Drive, Wolf Creek, Plainfield, Wheatland Township, Will County, Illinois, 60585, United States",
    "type": "competitor"
  },
  {
    "recordId": "67243421415",
    "name": "Cedar Middle",
    "competitor": "Apptegy",
    "domain": "",
    "city": "Hesperia",
    "state": "California",
    "owner": "",
    "createDate": "2025-07-15T16:12:11.295986",
    "lat": 34.4040762,
    "lng": -117.3662445,
    "displayName": "Cedar Middle School, Fuente Avenue, Hesperia, San Bernardino County, California, 92340, United States",
    "type": "competitor"
  },
  {
    "recordId": "66455276258",
    "name": "Factory Shoals Middle School",
    "competitor": "Apptegy",
    "domain": "",
    "city": "Douglasville",
    "state": "Georgia",
    "owner": "",
    "createDate": "2025-07-15T16:13:02.413274",
    "lat": 33.7235505,
    "lng": -84.6502419,
    "displayName": "Factory Shoals Middle School, 3301, Washington Drive, Douglasville, Douglas County, Georgia, 30135, United States",
    "type": "competitor"
  },
  {
    "recordId": "67211506388",
    "name": "Otisville Elementary School",
    "competitor": "Apptegy",
    "domain": "",
    "city": "Town of Mount Hope",
    "state": "New York",
    "owner": "",
    "createDate": "2025-07-15T16:13:04.676309",
    "lat": 41.4693801,
    "lng": -74.5405791,
    "displayName": "Otisville Elementary School, 21, School Street, Village of Otisville, Town of Mount Hope, Orange County, New York, 10963, United States",
    "type": "competitor"
  },
  {
    "recordId": "67211505377",
    "name": "Mission Crest Elementary",
    "competitor": "Apptegy",
    "domain": "",
    "city": "Hesperia",
    "state": "California",
    "owner": "",
    "createDate": "2025-07-15T16:13:25.658798",
    "lat": 34.4109785,
    "lng": -117.3779957,
    "displayName": "Mission Crest Elementary, Independence Avenue, High Country, Hesperia, San Bernardino County, California, 92340, United States",
    "type": "competitor"
  },
  {
    "recordId": "67316218604",
    "name": "Midview East Intermediate School",
    "competitor": "Apptegy",
    "domain": "",
    "city": "Grafton",
    "state": "Ohio",
    "owner": "",
    "createDate": "2025-07-15T16:14:15.321171",
    "lat": 41.2998946,
    "lng": -82.0557715,
    "displayName": "Midview East Intermediate School, 13060, Durkee Road, Grafton, Eaton Township, Lorain County, Ohio, 44044, United States",
    "type": "competitor"
  },
  {
    "recordId": "67045353200",
    "name": "Emmanuel Christian School",
    "competitor": "Apptegy",
    "domain": "",
    "city": "Toledo",
    "state": "Ohio",
    "owner": "",
    "createDate": "2025-07-15T16:14:28.632396",
    "lat": 41.7048604,
    "lng": -83.6512654,
    "displayName": "Emmanuel Christian School, West Laskey Road, Franklin Park, Toledo, Lucas County, Ohio, 43623, United States",
    "type": "competitor"
  },
  {
    "recordId": "67311971060",
    "name": "Coosa Christian School",
    "competitor": "Apptegy",
    "domain": "",
    "city": "Gadsden",
    "state": "Alabama",
    "owner": "",
    "createDate": "2025-07-15T16:15:38.148758",
    "lat": 33.9923165,
    "lng": -86.0513719,
    "displayName": "Coosa Christian School, Wills Creek Road, South Gadsden, Gadsden, Etowah County, Alabama, 35904, United States",
    "type": "competitor"
  },
  {
    "recordId": "66576883387",
    "name": "Mason County Central Upper Elementary",
    "competitor": "Apptegy",
    "domain": "",
    "city": "Scottville",
    "state": "Michigan",
    "owner": "",
    "createDate": "2025-07-15T16:16:12.305302",
    "lat": 43.958171,
    "lng": -86.287458,
    "displayName": "Mason County Central Upper Elementary, 505, West Maple Avenue, Scottville, Mason County, Michigan, 49454, United States",
    "type": "competitor"
  },
  {
    "recordId": "67292238561",
    "name": "Bremen Middle School",
    "competitor": "Apptegy",
    "domain": "",
    "city": "Bremen",
    "state": "Georgia",
    "owner": "",
    "createDate": "2025-07-15T16:16:23.810484",
    "lat": 33.7127678,
    "lng": -85.1180366,
    "displayName": "Bremen Middle School, South Georgia Avenue, Bremen, Haralson County, Georgia, 30110, United States",
    "type": "competitor"
  },
  {
    "recordId": "67311969995",
    "name": "Bridges Academy",
    "competitor": "Apptegy",
    "domain": "",
    "city": "Los Angeles",
    "state": "California",
    "owner": "",
    "createDate": "2025-07-15T16:16:43.039561",
    "lat": 34.1416736,
    "lng": -118.3948018,
    "displayName": "Bridges Academy, Laurel Canyon Boulevard, Studio City Neighborhood Council District, Los Angeles, Los Angeles County, California, 91604, United States",
    "type": "competitor"
  },
  {
    "recordId": "67316214473",
    "name": "Plainfield East High School",
    "competitor": "Apptegy",
    "domain": "",
    "city": "Plainfield",
    "state": "Illinois",
    "owner": "",
    "createDate": "2025-07-15T16:16:56.939549",
    "lat": 41.6615624,
    "lng": -88.1743864,
    "displayName": "Plainfield East High School, 12001, South Naperville Road, Plainfield, Wheatland Township, Will County, Illinois, 60585, United States",
    "type": "competitor"
  },
  {
    "recordId": "67311968960",
    "name": "Smith County High School",
    "competitor": "Apptegy",
    "domain": "",
    "city": "Carthage",
    "state": "Tennessee",
    "owner": "",
    "createDate": "2025-07-15T16:17:12.894416",
    "lat": 36.2534982,
    "lng": -85.9475562,
    "displayName": "Smith County High School, College Avenue East, Carthage, Smith County, Middle Tennessee, Tennessee, 37030, United States",
    "type": "competitor"
  },
  {
    "recordId": "67292237517",
    "name": "Chase Middle School",
    "competitor": "Apptegy",
    "domain": "",
    "city": "",
    "state": "Washington",
    "owner": "",
    "createDate": "2025-07-15T16:17:18.799207",
    "lat": 47.6229592,
    "lng": -117.3396729,
    "displayName": "Chase Middle School, East 37th Avenue, Spokane County, Washington, 99260, United States",
    "type": "competitor"
  },
  {
    "recordId": "67360831215",
    "name": "Ocean Park Elementary",
    "competitor": "Apptegy",
    "domain": "",
    "city": "Ocean Park",
    "state": "Washington",
    "owner": "",
    "createDate": "2025-07-15T16:17:34.663447",
    "lat": 46.4885779,
    "lng": -124.0506777,
    "displayName": "Ocean Park Elementary School, 25701, Vernon Avenue, Nahcotta, Ocean Park, Pacific County, Washington, 98637, United States",
    "type": "competitor"
  },
  {
    "recordId": "67292237513",
    "name": "Frankford Elementary",
    "competitor": "Apptegy",
    "domain": "",
    "city": "Baltimore",
    "state": "Maryland",
    "owner": "",
    "createDate": "2025-07-15T16:17:43.463384",
    "lat": 39.3195517,
    "lng": -76.5407979,
    "displayName": "Frankford Elementary School, 6001, Frankford Avenue, Frankford, Baltimore, Maryland, 21206, United States",
    "type": "competitor"
  },
  {
    "recordId": "67243415250",
    "name": "Lidgerwood Elementary School",
    "competitor": "Apptegy",
    "domain": "",
    "city": "Spokane",
    "state": "Washington",
    "owner": "",
    "createDate": "2025-07-15T16:17:46.616333",
    "lat": 47.7082712,
    "lng": -117.4045801,
    "displayName": "Lidgerwood Elementary School, East Nebraska Avenue, Spokane, Spokane County, Washington, 99207, United States",
    "type": "competitor"
  },
  {
    "recordId": "67311968958",
    "name": "Rainelle Elementary",
    "competitor": "Apptegy",
    "domain": "",
    "city": "Rainelle",
    "state": "West Virginia",
    "owner": "",
    "createDate": "2025-07-15T16:17:50.393037",
    "lat": 37.9680626,
    "lng": -80.7800685,
    "displayName": "Rainelle Elementary School, Dogwood Lane, Rainelle, Greenbrier County, West Virginia, 25962, United States",
    "type": "competitor"
  },
  {
    "recordId": "67045348077",
    "name": "Mockingbird Elementary School",
    "competitor": "Apptegy",
    "domain": "",
    "city": "Coppell",
    "state": "Texas",
    "owner": "",
    "createDate": "2025-07-15T16:17:54.965942",
    "lat": 32.9625443,
    "lng": -96.9693263,
    "displayName": "Mockingbird Elementary School, 300, Mockingbird Lane, Bethel, Coppell, Dallas County, Texas, 75019, United States",
    "type": "competitor"
  },
  {
    "recordId": "67311968957",
    "name": "Roane County High School",
    "competitor": "Apptegy",
    "domain": "",
    "city": "Kingston",
    "state": "Tennessee",
    "owner": "",
    "createDate": "2025-07-15T16:18:01.779702",
    "lat": 35.8753527,
    "lng": -84.5204895,
    "displayName": "Roane County High School, West Cumberland Street, Oak Hills, Kingston, Roane County, East Tennessee, Tennessee, 37763, United States",
    "type": "competitor"
  },
  {
    "recordId": "67316213480",
    "name": "Cedarcrest School",
    "competitor": "Apptegy",
    "domain": "",
    "city": "Marysville",
    "state": "Washington",
    "owner": "",
    "createDate": "2025-07-15T16:18:05.721987",
    "lat": 48.0729027,
    "lng": -122.1436426,
    "displayName": "Cedarcrest Middle School, 87th Street Northeast, Marysville, Snohomish County, Washington, 98270, United States",
    "type": "competitor"
  },
  {
    "recordId": "67346735837",
    "name": "Ripley Middle School",
    "competitor": "Apptegy",
    "domain": "",
    "city": "Ripley",
    "state": "West Virginia",
    "owner": "",
    "createDate": "2025-07-15T16:18:08.460648",
    "lat": 38.8071891,
    "lng": -81.705329,
    "displayName": "Ripley Middle School, School Street, Ripley, Jackson County, West Virginia, 25271, United States",
    "type": "competitor"
  },
  {
    "recordId": "67362632402",
    "name": "Rogersville Middle School",
    "competitor": "Apptegy",
    "domain": "",
    "city": "Rogersville",
    "state": "Tennessee",
    "owner": "",
    "createDate": "2025-07-15T16:18:09.776369",
    "lat": 36.410686,
    "lng": -82.9933583,
    "displayName": "Rogersville Middle School, Weedlawn Street, Rogersville, Hawkins County, East Tennessee, Tennessee, 37857, United States",
    "type": "competitor"
  },
  {
    "recordId": "67292237507",
    "name": "Mooresburg Elementary",
    "competitor": "Apptegy",
    "domain": "",
    "city": "Mooresburg",
    "state": "Tennessee",
    "owner": "",
    "createDate": "2025-07-15T16:18:25.482207",
    "lat": 36.3478513,
    "lng": -83.2288272,
    "displayName": "Mooresburg Elementary School, Flat Gap Road, Mooresburg Springs, Mooresburg, Hawkins County, East Tennessee, Tennessee, 37811, United States",
    "type": "competitor"
  },
  {
    "recordId": "67350259449",
    "name": "Harriman High School",
    "competitor": "Apptegy",
    "domain": "",
    "city": "Harriman",
    "state": "Tennessee",
    "owner": "",
    "createDate": "2025-07-15T16:18:41.551741",
    "lat": 35.9384083,
    "lng": -84.5446577,
    "displayName": "Harriman High School, Georgia Avenue Northeast, Harriman, Roane County, East Tennessee, Tennessee, 37748, United States",
    "type": "competitor"
  },
  {
    "recordId": "66576880323",
    "name": "Emily G Johns School",
    "competitor": "Apptegy",
    "domain": "",
    "city": "Plano",
    "state": "Illinois",
    "owner": "",
    "createDate": "2025-07-15T16:18:46.540261",
    "lat": 41.6577267,
    "lng": -88.50195,
    "displayName": "Emily G. Johns School, Mitchell Drive, Lakewood Springs, Plano, Little Rock Township, Kendall County, Illinois, 60545, United States",
    "type": "competitor"
  },
  {
    "recordId": "66576880318",
    "name": "Thompsonville Grade  School",
    "competitor": "Apptegy",
    "domain": "",
    "city": "Thompsonville",
    "state": "Illinois",
    "owner": "",
    "createDate": "2025-07-15T16:19:15.028128",
    "lat": 37.9192156,
    "lng": -88.7656171,
    "displayName": "Thompsonville Grade School, Shawneetown Road, Thompsonville, Franklin County, Illinois, 62890, United States",
    "type": "competitor"
  },
  {
    "recordId": "67316213467",
    "name": "Mahanay Elementary School",
    "competitor": "Apptegy",
    "domain": "",
    "city": "Houston",
    "state": "Texas",
    "owner": "",
    "createDate": "2025-07-15T16:19:19.164010",
    "lat": 29.7095739,
    "lng": -95.6157716,
    "displayName": "Mahanay Elementary School, 13215, High Star Drive, Houston, Harris County, Texas, 77083, United States",
    "type": "competitor"
  },
  {
    "recordId": "67346735828",
    "name": "Fifth Consolidated School",
    "competitor": "Apptegy",
    "domain": "",
    "city": "Dyersburg",
    "state": "Tennessee",
    "owner": "",
    "createDate": "2025-07-15T16:19:55.952347",
    "lat": 36.0896967,
    "lng": -89.3835014,
    "displayName": "Old Fifth Consolidated Elementary School, 2371, Millsfield Highway, Dyersburg, Dyer County, West Tennessee, Tennessee, 38024, United States",
    "type": "competitor"
  },
  {
    "recordId": "67243415229",
    "name": "Legacy High School",
    "competitor": "Apptegy",
    "domain": "",
    "city": "Quil Ceda Village / q\u02b7\u0259l'sid\u0259\u0294 \u0294al\u0294alt\u0259d",
    "state": "Washington",
    "owner": "",
    "createDate": "2025-07-15T16:20:04.134312",
    "lat": 48.0626836,
    "lng": -122.1983482,
    "displayName": "Legacy High School, 7204, 27th Avenue Northeast, Quil Ceda Village / q\u02b7\u0259l'sid\u0259\u0294 \u0294al\u0294alt\u0259d, Snohomish County, Washington, 98271, United States",
    "type": "competitor"
  },
  {
    "recordId": "67153245885",
    "name": "Aubrey Middle",
    "competitor": "Apptegy",
    "domain": "",
    "city": "Aubrey",
    "state": "Texas",
    "owner": "",
    "createDate": "2025-07-15T16:20:07.266357",
    "lat": 33.303044,
    "lng": -96.9948806,
    "displayName": "Aubrey Middle School, West Sherman Drive, Aubrey, Denton County, Texas, United States",
    "type": "competitor"
  },
  {
    "recordId": "66832211687",
    "name": "Tenino High School",
    "competitor": "Apptegy",
    "domain": "",
    "city": "Tenino",
    "state": "Washington",
    "owner": "",
    "createDate": "2025-07-15T16:20:10.031861",
    "lat": 46.8582934,
    "lng": -122.8568186,
    "displayName": "Tenino High School, 2nd Avenue, Tenino, Thurston County, Washington, 98589, United States",
    "type": "competitor"
  },
  {
    "recordId": "67311967985",
    "name": "Crawford Middle School",
    "competitor": "Apptegy",
    "domain": "",
    "city": "Vernon Township",
    "state": "Pennsylvania",
    "owner": "",
    "createDate": "2025-07-15T16:20:20.496822",
    "lat": 41.6292212,
    "lng": -80.2289501,
    "displayName": "Huller School, Middle Road, Vernon Township, Crawford County, Pennsylvania, United States",
    "type": "competitor"
  },
  {
    "recordId": "67362632390",
    "name": "Rogers High School",
    "competitor": "Apptegy",
    "domain": "",
    "city": "Spokane",
    "state": "Washington",
    "owner": "",
    "createDate": "2025-07-15T16:20:23.385223",
    "lat": 47.6990328,
    "lng": -117.3870193,
    "displayName": "John R. Rogers High School, East Longfellow Avenue, Hillyard, Spokane, Spokane County, Washington, 99207, United States",
    "type": "competitor"
  },
  {
    "recordId": "67366212308",
    "name": "Omar Elementary",
    "competitor": "Apptegy",
    "domain": "",
    "city": "Chauncey",
    "state": "West Virginia",
    "owner": "",
    "createDate": "2025-07-15T16:20:35.218513",
    "lat": 37.7697453,
    "lng": -81.9892433,
    "displayName": "Omar Elementary School, WV 44, Micco, Chauncey, Logan County, West Virginia, 25612, United States",
    "type": "competitor"
  },
  {
    "recordId": "66832211681",
    "name": "Kellogg Marsh Elementary School",
    "competitor": "Apptegy",
    "domain": "",
    "city": "Marysville",
    "state": "Washington",
    "owner": "",
    "createDate": "2025-07-15T16:20:45.836080",
    "lat": 48.0769193,
    "lng": -122.143653,
    "displayName": "Kellogg Marsh Elementary School, 91st Street Northeast, Marysville, Snohomish County, Washington, 98270, United States",
    "type": "competitor"
  },
  {
    "recordId": "67045348051",
    "name": "Carthage Elementary School",
    "competitor": "Apptegy",
    "domain": "",
    "city": "Carthage",
    "state": "Illinois",
    "owner": "",
    "createDate": "2025-07-15T16:20:48.527789",
    "lat": 40.4209758,
    "lng": -91.1339383,
    "displayName": "Carthage Elementary School, Miller Street, Carthage, Hancock County, Illinois, 62321, United States",
    "type": "competitor"
  },
  {
    "recordId": "67350259433",
    "name": "Alderson Elementary",
    "competitor": "Apptegy",
    "domain": "",
    "city": "Alderson",
    "state": "West Virginia",
    "owner": "",
    "createDate": "2025-07-15T16:20:56.659376",
    "lat": 37.7270919,
    "lng": -80.6364664,
    "displayName": "Alderson Elementary School, Elmwood Avenue, Alderson, Greenbrier County, West Virginia, 24910, United States",
    "type": "competitor"
  },
  {
    "recordId": "67362632384",
    "name": "Gilmore Elementary School",
    "competitor": "Apptegy",
    "domain": "",
    "city": "",
    "state": "West Virginia",
    "owner": "",
    "createDate": "2025-07-15T16:21:07.225168",
    "lat": 38.9129024,
    "lng": -81.6596772,
    "displayName": "Gilmore Elementary School, Old US 21, New Era, Jackson County, West Virginia, 25275, United States",
    "type": "competitor"
  },
  {
    "recordId": "67364432602",
    "name": "Ripley Elementary",
    "competitor": "Apptegy",
    "domain": "",
    "city": "Ripley",
    "state": "West Virginia",
    "owner": "",
    "createDate": "2025-07-15T16:21:17.002676",
    "lat": 38.8152777,
    "lng": -81.6998799,
    "displayName": "Ripley Elementary School, 2nd Avenue, Ripley, Jackson County, West Virginia, 25271, United States",
    "type": "competitor"
  },
  {
    "recordId": "67364432600",
    "name": "South Clinton Elementary",
    "competitor": "Apptegy",
    "domain": "",
    "city": "Clinton",
    "state": "Tennessee",
    "owner": "",
    "createDate": "2025-07-15T16:21:27.663947",
    "lat": 36.0774656,
    "lng": -84.1357219,
    "displayName": "South Clinton Elementary School, 242, Hiway Drive, South Clinton, Clinton, Anderson County, East Tennessee, Tennessee, 37716, United States",
    "type": "competitor"
  },
  {
    "recordId": "67292236525",
    "name": "Fairview Elementary School",
    "competitor": "Apptegy",
    "domain": "",
    "city": "",
    "state": "Georgia",
    "owner": "",
    "createDate": "2025-07-15T16:21:34.978001",
    "lat": 34.5998191,
    "lng": -83.6132304,
    "displayName": "Fairview Elementary School, Fairview School Road, Fairview, Habersham County, Georgia, 30535, United States",
    "type": "competitor"
  },
  {
    "recordId": "67211497194",
    "name": "St Thomas More High School",
    "competitor": "Apptegy",
    "domain": "",
    "city": "Champaign",
    "state": "Illinois",
    "owner": "",
    "createDate": "2025-07-15T16:21:37.259306",
    "lat": 40.162604,
    "lng": -88.2803484,
    "displayName": "The High School of St. Thomas More, 3901, North Mattis Avenue, Champaign, Champaign County, Illinois, 61822, United States",
    "type": "competitor"
  },
  {
    "recordId": "67362632382",
    "name": "Rutherford Elementary",
    "competitor": "Apptegy",
    "domain": "",
    "city": "Stillwater",
    "state": "Minnesota",
    "owner": "",
    "createDate": "2025-07-15T16:21:46.783766",
    "lat": 45.0564302,
    "lng": -92.8564065,
    "displayName": "Rutherford Elementary, 115, Rutherford Road, Stillwater, Washington County, Minnesota, 55082, United States",
    "type": "competitor"
  },
  {
    "recordId": "66455271152",
    "name": "Republic Junior High",
    "competitor": "Apptegy",
    "domain": "",
    "city": "Republic",
    "state": "Washington",
    "owner": "",
    "createDate": "2025-07-15T16:21:55.403592",
    "lat": 48.6419163,
    "lng": -118.7256294,
    "displayName": "Republic Junior-Senior High School, 30306, State Street, Republic, Ferry County, Washington, 99166, United States",
    "type": "competitor"
  },
  {
    "recordId": "67350259427",
    "name": "Augusta Elementary School",
    "competitor": "Apptegy",
    "domain": "",
    "city": "",
    "state": "West Virginia",
    "owner": "",
    "createDate": "2025-07-15T16:22:21.684881",
    "lat": 39.2930017,
    "lng": -78.6405071,
    "displayName": "Augusta Elementary School, 61, Pancione Loop, Augusta, Hampshire County, West Virginia, 26704, United States",
    "type": "competitor"
  },
  {
    "recordId": "67243414263",
    "name": "Alief Learning Ctr (K-6)",
    "competitor": "Apptegy",
    "domain": "",
    "city": "Houston",
    "state": "Texas",
    "owner": "",
    "createDate": "2025-07-15T16:22:32.563991",
    "lat": 29.7061999,
    "lng": -95.5823295,
    "displayName": "Alief Learning Center, 4427, Belle Park Drive, Little Saigon, Alief, Houston, Harris County, Texas, 77072, United States",
    "type": "competitor"
  },
  {
    "recordId": "67346735820",
    "name": "Killough Middle School",
    "competitor": "Apptegy",
    "domain": "",
    "city": "Houston",
    "state": "Texas",
    "owner": "",
    "createDate": "2025-07-15T16:22:35.714798",
    "lat": 29.694639,
    "lng": -95.617178,
    "displayName": "Killough Middle School, 7600, Synott Road;Nguy\u1ec5n V\u0103n Long, Houston, Harris County, Texas, 77083, United States",
    "type": "competitor"
  },
  {
    "recordId": "67045348046",
    "name": "Page Jackson Elementary",
    "competitor": "Apptegy",
    "domain": "",
    "city": "Charles Town",
    "state": "West Virginia",
    "owner": "",
    "createDate": "2025-07-15T16:22:59.772304",
    "lat": 39.2703436,
    "lng": -77.8745551,
    "displayName": "Page Jackson Elementary School, Page-Jackson School Road, Charles Town, Jefferson County, West Virginia, 25414, United States",
    "type": "competitor"
  },
  {
    "recordId": "66832211673",
    "name": "Dalhart Elementary School",
    "competitor": "Apptegy",
    "domain": "",
    "city": "Dalhart",
    "state": "Texas",
    "owner": "",
    "createDate": "2025-07-15T16:23:12.094374",
    "lat": 36.0521035,
    "lng": -102.5130415,
    "displayName": "Dalhart Elementary School, Tennessee Avenue, Dalhart, Hartley County, Texas, 79022, United States",
    "type": "competitor"
  },
  {
    "recordId": "66832211672",
    "name": "Crossroads",
    "competitor": "Apptegy",
    "domain": "",
    "city": "Houston",
    "state": "Texas",
    "owner": "",
    "createDate": "2025-07-15T16:23:15.580278",
    "lat": 29.7149035,
    "lng": -95.4173936,
    "displayName": "Crossroads, University Boulevard, Rice Village, University Place, Houston, Harris County, Texas, 77005, United States",
    "type": "competitor"
  },
  {
    "recordId": "66455271142",
    "name": "China Spring Middle School",
    "competitor": "Apptegy",
    "domain": "",
    "city": "China Spring",
    "state": "Texas",
    "owner": "",
    "createDate": "2025-07-15T16:23:19.573453",
    "lat": 31.6501631,
    "lng": -97.3108435,
    "displayName": "China Spring Middle School, Utah Street, China Spring, McLennan County, Texas, 76633, United States",
    "type": "competitor"
  },
  {
    "recordId": "67243414253",
    "name": "Dalhart Junior High School",
    "competitor": "Apptegy",
    "domain": "",
    "city": "Dalhart",
    "state": "Texas",
    "owner": "",
    "createDate": "2025-07-15T16:23:50.631299",
    "lat": 36.0497162,
    "lng": -102.5046255,
    "displayName": "Dalhart Junior High School, East 16th Street, Dalhart, Hartley County, Texas, 79022, United States",
    "type": "competitor"
  },
  {
    "recordId": "67311967972",
    "name": "Hamblen Elementary",
    "competitor": "Apptegy",
    "domain": "",
    "city": "Spokane",
    "state": "Washington",
    "owner": "",
    "createDate": "2025-07-15T16:23:53.504060",
    "lat": 47.6182203,
    "lng": -117.3806259,
    "displayName": "Hamblen Elementary School, East Thurston Avenue, Spokane, Spokane County, Washington, 99203, United States",
    "type": "competitor"
  },