[
  {
    "name": "McGill-Toolen Catholic High School",
    "lat": 30.6886812,
    "lng": -88.071732,
    "url": "https://www.mcgill-toolen.org",
    "type": "charter",
    "state": "AL"
  },
  {
    "name": "Lowndes Academy",
    "lat": 32.2753075,
    "lng": -86.6112905,
    "url": "https://www.lowndesacademy.org",
    "type": "charter",
    "state": "AL"
  },
  {
    "name": "Glenwood School",
    "lat": 32.5373303,
    "lng": -85.095193,
    "url": "https://www.glenwoodgators.org",
    "type": "charter",
    "state": "AL"
  },
  {
    "name": "Quest Academy Little Rock",
    "lat": 34.7713784,
    "lng": -92.4521146,
    "url": "https://www.founderswestlittlerock.com",
    "type": "charter",
    "state": "AR"
  },
  {
    "name": "LISA North Middle-High",
    "lat": 34.7920941,
    "lng": -92.2227091,
    "url": "https://lisanorthhigh.lisaacademy.org",
    "type": "charter",
    "state": "AR"
  },
  {
    "name": "LISA North Elementary",
    "lat": 34.7920941,
    "lng": -92.2227091,
    "url": "https://lisanorth.lisaacademy.org",
    "type": "charter",
    "state": "AR"
  },
  {
    "name": "LISA West Elementary K-6",
    "lat": 34.7513181,
    "lng": -92.4093422,
    "url": "https://westelementary.lisaacademy.org",
    "type": "charter",
    "state": "AR"
  },
  {
    "name": "Premier High School - Little Rock",
    "lat": 34.7435644,
    "lng": -92.2883246,
    "url": "https://www.premierlittlerock.com",
    "type": "charter",
    "state": "AR"
  },
  {
    "name": "LISA West High School",
    "lat": 34.7508598,
    "lng": -92.3874867,
    "url": "https://lisawesthigh.lisaacademy.org",
    "type": "charter",
    "state": "AR"
  },
  {
    "name": "Premier High School - North Little Rock",
    "lat": 34.720556,
    "lng": -92.282856,
    "url": "https://www.premiernlr.com",
    "type": "charter",
    "state": "AR"
  },
  {
    "name": "Northwest Arkansas Classical Academy",
    "lat": 36.3620412,
    "lng": -94.2282033,
    "url": "https://www.foundersbentonville.com",
    "type": "charter",
    "state": "AR"
  },
  {
    "name": "Premier High School - Springdale",
    "lat": 36.1909006,
    "lng": -94.165165,
    "url": "https://www.premierspringdale.com",
    "type": "charter",
    "state": "AR"
  },
  {
    "name": "Premier High School - Texarkana (Arkansas)",
    "lat": 33.4534338,
    "lng": -94.0430202,
    "url": "https://www.premiertexarkanaar.com",
    "type": "charter",
    "state": "AR"
  },
  {
    "name": "Arizona Autism Charter School",
    "lat": 33.4943468,
    "lng": -112.0511958,
    "url": "https://www.autismcharter.org",
    "type": "charter",
    "state": "AZ"
  },
  {
    "name": "Seton Catholic Preparatory High School",
    "lat": 33.324833,
    "lng": -111.8765015,
    "url": "https://www.setoncatholic.org",
    "type": "charter",
    "state": "AZ"
  },
  {
    "name": "Bourgade Catholic High School",
    "lat": 33.5047509,
    "lng": -112.1268328,
    "url": "https://www.bourgadecatholic.org",
    "type": "charter",
    "state": "AZ"
  },
  {
    "name": "Academies of Math & Science",
    "lat": 33.5804636,
    "lng": -112.2273963,
    "url": "https://www.amsschools.org",
    "type": "charter",
    "state": "AZ"
  },
  {
    "name": "Villa Montessori School",
    "lat": 33.5037935,
    "lng": -112.0210388,
    "url": "https://www.villamontessori.com",
    "type": "charter",
    "state": "AZ"
  },
  {
    "name": "AMS Glendale",
    "lat": 33.5394137,
    "lng": -112.1568652,
    "url": "https://glendale.amsschools.org",
    "type": "charter",
    "state": "AZ"
  },
  {
    "name": "AMS Desert Sky",
    "lat": 33.4649909,
    "lng": -112.1831633,
    "url": "https://desertsky.amsschools.org",
    "type": "charter",
    "state": "AZ"
  },
  {
    "name": "AMS Camelback",
    "lat": 33.5088111,
    "lng": -112.2024291,
    "url": "https://camelback.amsschools.org",
    "type": "charter",
    "state": "AZ"
  },
  {
    "name": "AMS Massa",
    "lat": 32.1322498,
    "lng": -110.9759975,
    "url": "https://massa.amsschools.org",
    "type": "charter",
    "state": "AZ"
  },
  {
    "name": "AMS Prince",
    "lat": 32.2721413,
    "lng": -110.9995224,
    "url": "https://prince.amsschools.org",
    "type": "charter",
    "state": "AZ"
  },
  {
    "name": "Kingman Academy of Learning",
    "lat": 35.2241988,
    "lng": -114.029066,
    "url": "https://www.kaolaz.org",
    "type": "charter",
    "state": "AZ"
  },
  {
    "name": "Ppep Tec - Celestino Fernandez Learning Center",
    "lat": 32.1694206,
    "lng": -110.9440746,
    "url": "https://cflc.ppeptechs.org",
    "type": "charter",
    "state": "AZ"
  },
  {
    "name": "Paradise Honors High School",
    "lat": 33.599408,
    "lng": -112.434862,
    "url": "https://phhs.paradiseschools.org",
    "type": "charter",
    "state": "AZ"
  },
  {
    "name": "New World Educational Center",
    "lat": 33.5221705,
    "lng": -112.0650861,
    "url": "https://www.nweccharter.com",
    "type": "charter",
    "state": "AZ"
  },
  {
    "name": "Telesis Preparatory Academy",
    "lat": 34.491545,
    "lng": -114.317163,
    "url": "https://www.telesis-academy.org",
    "type": "charter",
    "state": "AZ"
  },
  {
    "name": "Paradise Schools",
    "lat": 33.6302882,
    "lng": -112.3955808,
    "url": "https://www.paradiseschools.org",
    "type": "charter",
    "state": "AZ"
  },
  {
    "name": "Benchmark Preschool & Elementary School",
    "lat": 33.6201341,
    "lng": -111.9930527,
    "url": "https://www.benchmarkbobcats.org",
    "type": "charter",
    "state": "AZ"
  },
  {
    "name": "Ppep Tec - Jose Yepez Learning Center",
    "lat": 32.5976235,
    "lng": -114.7064447,
    "url": "https://jylc.ppeptechs.org",
    "type": "charter",
    "state": "AZ"
  },
  {
    "name": "Ppep Tec - Cesar Chavez Learning Center",
    "lat": 32.5008673,
    "lng": -114.7858308,
    "url": "https://cclc.ppeptechs.org",
    "type": "charter",
    "state": "AZ"
  },
  {
    "name": "AMS South Mountain",
    "lat": 33.3775821,
    "lng": -112.0910468,
    "url": "https://southmountain.amsschools.org",
    "type": "charter",
    "state": "AZ"
  },
  {
    "name": "Kaleidoscope School",
    "lat": 33.6399718,
    "lng": -112.0482771,
    "url": "https://www.ksk8.org",
    "type": "charter",
    "state": "AZ"
  },
  {
    "name": "Academy Del Sol - Star Valley",
    "lat": 32.2793305,
    "lng": -110.9830757,
    "url": "https://starvalley.academydelsol.com",
    "type": "charter",
    "state": "AZ"
  },
  {
    "name": "PPEP TEC Raul Castro Learning Center",
    "lat": 31.3496477,
    "lng": -109.5547176,
    "url": "https://rclc.ppeptechs.org",
    "type": "charter",
    "state": "AZ"
  },
  {
    "name": "St. John Paul II Catholic High School",
    "lat": 33.4819248,
    "lng": -112.3559995,
    "url": "https://www.jp2catholic.org",
    "type": "charter",
    "state": "AZ"
  },
  {
    "name": "Equitas Academy #5",
    "lat": 34.05872,
    "lng": -118.281617,
    "url": "https://eq5.equitasacademy.org",
    "type": "charter",
    "state": "CA"
  },
  {
    "name": "Watsonville Prep School",
    "lat": 36.919409,
    "lng": -121.7524102,
    "url": "https://www.watsonvilleprep.org",
    "type": "charter",
    "state": "CA"
  },
  {
    "name": "St. Benedict School",
    "lat": 34.0131561,
    "lng": -118.110141,
    "url": "https://www.st-benedictschool.org",
    "type": "charter",
    "state": "CA"
  },
  {
    "name": "St. Juliana Falconieri School",
    "lat": 33.8840406,
    "lng": -117.8974961,
    "url": "https://www.stjulianaschool.org",
    "type": "charter",
    "state": "CA"
  },
  {
    "name": "Riverside Prep High School",
    "lat": 34.5987742,
    "lng": -117.3320593,
    "url": "https://highschool.riversideprep.net",
    "type": "charter",
    "state": "CA"
  },
  {
    "name": "Fairmont Schools",
    "lat": 33.8300377,
    "lng": -117.93514,
    "url": "https://www.fairmontschools.com",
    "type": "charter",
    "state": "CA"
  },
  {
    "name": "Vista Oaks Charter School",
    "lat": 38.1290835,
    "lng": -121.3064855,
    "url": "https://www.vistaoaks.net",
    "type": "charter",
    "state": "CA"
  },
  {
    "name": "Ingenuity Charter School",
    "lat": 32.702541,
    "lng": -117.064835,
    "url": "https://www.ingenuitycharter.org",
    "type": "charter",
    "state": "CA"
  },
  {
    "name": "Sparrow School",
    "lat": 32.773075,
    "lng": -117.007159,
    "url": "https://www.sparrowschool.org",
    "type": "charter",
    "state": "CA"
  },
  {
    "name": "St. Lucy's Priory High School",
    "lat": 34.1469992,
    "lng": -117.8763692,
    "url": "https://www.stlucys.com",
    "type": "charter",
    "state": "CA"
  },
  {
    "name": "CHIME Institute",
    "lat": 34.1647796,
    "lng": -118.5627547,
    "url": "https://www.chimeinstitute.org",
    "type": "charter",
    "state": "CA"
  },
  {
    "name": "Olive Crest Academy",
    "lat": 33.7726646,
    "lng": -117.9501347,
    "url": "https://www.olivecrestacademy.org",
    "type": "charter",
    "state": "CA"
  },
  {
    "name": "Elevate Elementary School",
    "lat": 32.786391,
    "lng": -117.144214,
    "url": "https://www.elevateschool.com",
    "type": "charter",
    "state": "CA"
  },
  {
    "name": "Village Charter Academy",
    "lat": 34.2038599,
    "lng": -118.6029633,
    "url": "https://www.villagecharteracademy.com",
    "type": "charter",
    "state": "CA"
  },
  {
    "name": "Key Academy Charter School",
    "lat": 37.6755713,
    "lng": -122.0980317,
    "url": "https://www.keyacademycharter.org",
    "type": "charter",
    "state": "CA"
  },
  {
    "name": "Haynes Charter",
    "lat": 34.1905749,
    "lng": -118.6489242,
    "url": "https://haynesces.lausd.org",
    "type": "charter",
    "state": "CA"
  },
  {
    "name": "St. Paul\u2019s School",
    "lat": 37.7438894,
    "lng": -122.4271031,
    "url": "https://www.stpaulschoolsf.org",
    "type": "charter",
    "state": "CA"
  },
  {
    "name": "Shalhevet High School",
    "lat": 34.0596968,
    "lng": -118.3627734,
    "url": "https://www.shalhevet.org",
    "type": "charter",
    "state": "CA"
  },
  {
    "name": "Damien High School",
    "lat": 34.1036814,
    "lng": -117.7883813,
    "url": "https://www.damien-hs.edu",
    "type": "charter",
    "state": "CA"
  },
  {
    "name": "Bishop Mora Salesian High School",
    "lat": 34.0324954,
    "lng": -118.2158463,
    "url": "https://www.mustangsla.org",
    "type": "charter",
    "state": "CA"
  },
  {
    "name": "Oxford Preparatory Academy",
    "lat": 34.0165014,
    "lng": -117.6773763,
    "url": "https://www.opaschools.org",
    "type": "charter",
    "state": "CA"
  },
  {
    "name": "Bishop Montgomery High School",
    "lat": 33.8375211,
    "lng": -118.3718332,
    "url": "https://www.bmhs-la.org",
    "type": "charter",
    "state": "CA"
  },
  {
    "name": "Cantwell-Sacred Heart of Mary High School",
    "lat": 34.0251488,
    "lng": -118.131197,
    "url": "https://www.cshm.org",
    "type": "charter",
    "state": "CA"
  },
  {
    "name": "St Margaret Mary School",
    "lat": 33.7921599,
    "lng": -118.3146307,
    "url": "https://www.smmsspartans.org",
    "type": "charter",
    "state": "CA"
  },
  {
    "name": "St. Francis of Assisi Catholic School",
    "lat": 33.8822335,
    "lng": -117.7465456,
    "url": "https://www.sfayl.org",
    "type": "charter",
    "state": "CA"
  },
  {
    "name": "St. Bernard High School",
    "lat": 33.954481,
    "lng": -118.4329463,
    "url": "https://www.stbernardhs.org",
    "type": "charter",
    "state": "CA"
  },
  {
    "name": "St. Andrew Catholic School",
    "lat": 34.1501099,
    "lng": -118.1497241,
    "url": "https://www.saspasadena.com",
    "type": "charter",
    "state": "CA"
  },
  {
    "name": "Sacred Heart Academy (CA)",
    "lat": 34.0518911,
    "lng": -117.1825063,
    "url": "https://www.sacredheartredlands.com",
    "type": "charter",
    "state": "CA"
  },
  {
    "name": "Our Lady of Grace School",
    "lat": 34.1624731,
    "lng": -118.5190324,
    "url": "https://www.ourladyofgrace.co",
    "type": "charter",
    "state": "CA"
  },
  {
    "name": "Old Mission School",
    "lat": 35.2819756,
    "lng": -120.6665004,
    "url": "https://www.omsslo.org",
    "type": "charter",
    "state": "CA"
  },
  {
    "name": "Most Holy Trinity School",
    "lat": 37.3309704,
    "lng": -121.8270311,
    "url": "https://www.mht.school",
    "type": "charter",
    "state": "CA"
  },
  {
    "name": "Holy Family Catholic School",
    "lat": 33.7800548,
    "lng": -117.8534432,
    "url": "https://www.holyfamilyk8.org",
    "type": "charter",
    "state": "CA"
  },
  {
    "name": "Bishop Conaty-Our Lady of Loretto High School",
    "lat": 34.047133,
    "lng": -118.303253,
    "url": "https://www.bishopconatyloretto.org",
    "type": "charter",
    "state": "CA"
  },
  {
    "name": "Alta Loma Christian School",
    "lat": 34.1330573,
    "lng": -117.5874215,
    "url": "https://www.alchristian.com",
    "type": "charter",
    "state": "CA"
  },
  {
    "name": "Northern Light School",
    "lat": 37.7576972,
    "lng": -122.144371,
    "url": "https://www.northernlightschool.com",
    "type": "charter",
    "state": "CA"
  },
  {
    "name": "The Saklan School",
    "lat": 37.833125,
    "lng": -122.132655,
    "url": "https://www.saklan.org",
    "type": "charter",
    "state": "CA"
  },
  {
    "name": "South Peninsula Hebrew Day School",
    "lat": 37.3498643,
    "lng": -122.05749,
    "url": "https://www.sphds.org",
    "type": "charter",
    "state": "CA"
  },
  {
    "name": "C&E Merdinian Armenian Evangelical School",
    "lat": 34.15753,
    "lng": -118.423645,
    "url": "https://www.merdinianschool.org",
    "type": "charter",
    "state": "CA"
  },
  {
    "name": "Levon & Hasmig Tavlian Armenian Preschool & Kdgn",
    "lat": 34.1686283,
    "lng": -118.1157228,
    "url": "https://www.tavlianpreschool.org",
    "type": "charter",
    "state": "CA"
  },
  {
    "name": "Monterey Bay Academy",
    "lat": 36.9109564,
    "lng": -121.8293788,
    "url": "https://www.montereybayacademy.org",
    "type": "charter",
    "state": "CA"
  },
  {
    "name": "Mary Star of the Sea Elementary School",
    "lat": 33.7376327,
    "lng": -118.2944367,
    "url": "https://www.marystarelementary.org",
    "type": "charter",
    "state": "CA"
  },
  {
    "name": "Eastside Christian Schools",
    "lat": 33.8675692,
    "lng": -117.9581771,
    "url": "https://www.eastsidechristian.org",
    "type": "charter",
    "state": "CA"
  },
  {
    "name": "Yavneh Hebrew Academy",
    "lat": 34.0688352,
    "lng": -118.3351887,
    "url": "https://www.yha.org",
    "type": "charter",
    "state": "CA"
  },
  {
    "name": "Crestview Preparatory School",
    "lat": 34.1944573,
    "lng": -118.1787385,
    "url": "https://www.crestviewprep.org",
    "type": "charter",
    "state": "CA"
  },
  {
    "name": "St. Rita School",
    "lat": 34.1672054,
    "lng": -118.0524516,
    "url": "https://www.st-ritaschool.org",
    "type": "charter",
    "state": "CA"
  },
  {
    "name": "Escondido Adventist Academy",
    "lat": 33.1395725,
    "lng": -117.105894,
    "url": "https://www.eaaschool.org",
    "type": "charter",
    "state": "CA"
  },
  {
    "name": "Mission College Preparatory Catholic High School",
    "lat": 35.2810959,
    "lng": -120.6657301,
    "url": "https://www.missionprep.org",
    "type": "charter",
    "state": "CA"
  },
  {
    "name": "Saint Jeanne de Lestonnac Catholic School",
    "lat": 33.5174318,
    "lng": -117.0900582,
    "url": "https://www.sjdls.com",
    "type": "charter",
    "state": "CA"
  },
  {
    "name": "St. Theresa Catholic School",
    "lat": 33.8154277,
    "lng": -116.5149793,
    "url": "https://www.sttheresaschoolpalmsprings.org",
    "type": "charter",
    "state": "CA"
  },
  {
    "name": "Berkwood Hedge School",
    "lat": 37.867009,
    "lng": -122.274366,
    "url": "https://www.berkwood.org",
    "type": "charter",
    "state": "CA"
  },
  {
    "name": "Holy Spirit School",
    "lat": 37.2285868,
    "lng": -121.8729982,
    "url": "https://www.holyspirit-school.org",
    "type": "charter",
    "state": "CA"
  },
  {
    "name": "St. Thomas Aquinas Catholic School",
    "lat": 34.0452892,
    "lng": -118.1411815,
    "url": "https://www.stampkschool.org",
    "type": "charter",
    "state": "CA"
  },
  {
    "name": "St. Mary Magdalen",
    "lat": 34.2161229,
    "lng": -119.0360393,
    "url": "https://www.smms.pvt.k12.ca.us",
    "type": "charter",
    "state": "CA"
  },
  {
    "name": "Holy Family School",
    "lat": 37.2619916,
    "lng": -121.8631024,
    "url": "https://www.holyfamilyschoolsj.com",
    "type": "charter",
    "state": "CA"
  },
  {
    "name": "Saint Mark School",
    "lat": 33.9913484,
    "lng": -118.452475,
    "url": "https://www.stmarkschool.com",
    "type": "charter",
    "state": "CA"
  },
  {
    "name": "St. Francis High School",
    "lat": 36.9277374,
    "lng": -121.7452064,
    "url": "https://www.stfrancishigh.net",
    "type": "charter",
    "state": "CA"
  },
  {
    "name": "St. Matthew's Parish School",
    "lat": 34.036427,
    "lng": -118.451046,
    "url": "https://www.stmatthewsschool.com",
    "type": "charter",
    "state": "CA"
  },
  {
    "name": "St. Gregory the Great School",
    "lat": 32.92537,
    "lng": -117.017439,
    "url": "https://www.stggcs.org",
    "type": "charter",
    "state": "CA"
  },
  {
    "name": "Our Lady Of Mt. Carmel School",
    "lat": 32.5576542,
    "lng": -117.045076,
    "url": "https://www.olmc.school",
    "type": "charter",
    "state": "CA"
  },
  {
    "name": "St. Edward School",
    "lat": 37.5395377,
    "lng": -122.0277061,
    "url": "https://www.stedcs.org",
    "type": "charter",
    "state": "CA"
  },
  {
    "name": "Corpus Christi School (CA)",
    "lat": 34.044355,
    "lng": -118.523577,
    "url": "https://www.corpuschristi-school.com",
    "type": "charter",
    "state": "CA"
  },
  {
    "name": "Saint Paschal Baylon School",
    "lat": 34.2011277,
    "lng": -118.8689959,
    "url": "https://www.stpaschalbaylonschool.org",
    "type": "charter",
    "state": "CA"
  },
  {
    "name": "St James Catholic School",
    "lat": 33.8438764,
    "lng": -118.3627269,
    "url": "https://www.sjscatholicschool.org",
    "type": "charter",
    "state": "CA"
  },
  {
    "name": "Saint Mary's High School",
    "lat": 38.0032687,
    "lng": -121.3068984,
    "url": "https://www.saintmaryshighschool.org",
    "type": "charter",
    "state": "CA"
  },
  {
    "name": "St. Edward the Confessor Parish School",
    "lat": 33.4713635,
    "lng": -117.6894468,
    "url": "https://www.stedschool.org",
    "type": "charter",
    "state": "CA"
  },
  {
    "name": "St. Brendan Parish School",
    "lat": 37.7431305,
    "lng": -122.4558666,
    "url": "https://www.stbrendansf.com",
    "type": "charter",
    "state": "CA"
  },
  {
    "name": "St. Bede Catholic School",
    "lat": 37.6383034,
    "lng": -122.0795315,
    "url": "https://www.stbedecatholicschool.org",
    "type": "charter",
    "state": "CA"
  },
  {
    "name": "St. Anthony High School",
    "lat": 33.7745343,
    "lng": -118.1824859,
    "url": "https://www.longbeachsaints.org",
    "type": "charter",
    "state": "CA"
  },
  {
    "name": "Santa Clara High School",
    "lat": 34.1790347,
    "lng": -119.1775933,
    "url": "https://www.santaclarahighschool.com",
    "type": "charter",
    "state": "CA"
  },
  {
    "name": "San Gabriel Mission High School",
    "lat": 34.0980464,
    "lng": -118.1077927,
    "url": "https://www.sgmhs.org",
    "type": "charter",
    "state": "CA"
  },
  {
    "name": "Sahag Mesrob Armenian Christian School",
    "lat": 34.188665,
    "lng": -118.128701,
    "url": "https://www.sahagmesrobschool.org",
    "type": "charter",
    "state": "CA"
  },
  {
    "name": "Red Hill Lutheran School",
    "lat": 33.7425572,
    "lng": -117.8062888,
    "url": "https://www.redhillschool.org",
    "type": "charter",
    "state": "CA"
  },
  {
    "name": "Our Lady Queen of Angels",
    "lat": 33.6320872,
    "lng": -117.8773011,
    "url": "https://www.olqaschool.org",
    "type": "charter",
    "state": "CA"
  },
  {
    "name": "Our Lady of Grace Catholic School",
    "lat": 37.7002789,
    "lng": -122.0835406,
    "url": "https://www.olgschool.org",
    "type": "charter",
    "state": "CA"
  },
  {
    "name": "Our Lady of the Assumption School",
    "lat": 34.09628,
    "lng": -117.7308985,
    "url": "https://www.ola-ca.org",
    "type": "charter",
    "state": "CA"
  },
  {
    "name": "Saints Felicitas and Perpetua",
    "lat": 34.1275086,
    "lng": -118.0926314,
    "url": "https://www.ssfp.org",
    "type": "charter",
    "state": "CA"
  },
  {
    "name": "St. Paul's Lutheran School",
    "lat": 33.8313086,
    "lng": -117.8443979,
    "url": "https://www.splsorange.org",
    "type": "charter",
    "state": "CA"
  },
  {
    "name": "Bishop Alemany High School",
    "lat": 34.2788779,
    "lng": -118.4622976,
    "url": "https://www.alemany.org",
    "type": "charter",
    "state": "CA"
  },
  {
    "name": "Visitation Elementary School",
    "lat": 33.9582757,
    "lng": -118.4041099,
    "url": "https://www.visitationschool.org",
    "type": "charter",
    "state": "CA"
  },
  {
    "name": "St. Anastasia School",
    "lat": 33.9587851,
    "lng": -118.4252332,
    "url": "https://school.st-anastasia.org",
    "type": "charter",
    "state": "CA"
  },
  {
    "name": "St Pius V Catholic School",
    "lat": 33.8604057,
    "lng": -117.99965,
    "url": "https://www.stpius5school.net",
    "type": "charter",
    "state": "CA"
  },
  {
    "name": "Saint Mary's College High School",
    "lat": 37.8823493,
    "lng": -122.2839663,
    "url": "https://www.saintmaryschs.org",
    "type": "charter",
    "state": "CA"
  },
  {
    "name": "St. Irenaeus Parish School",
    "lat": 33.8294598,
    "lng": -118.0422856,
    "url": "https://www.stischoolcypress.org",
    "type": "charter",
    "state": "CA"
  },
  {
    "name": "St. Hyacinth Academy",
    "lat": 33.7807238,
    "lng": -116.9645844,
    "url": "https://www.shaeagles.org",
    "type": "charter",
    "state": "CA"
  },
  {
    "name": "St. Hedwig School",
    "lat": 33.7958594,
    "lng": -118.072283,
    "url": "https://www.sthedwigk8.org",
    "type": "charter",
    "state": "CA"
  },
  {
    "name": "St. George Parish School",
    "lat": 34.067094,
    "lng": -117.6539401,
    "url": "https://www.stgeorgeontario.com",
    "type": "charter",
    "state": "CA"
  },
  {
    "name": "Alliance Tennenbaum Family Technology High School",
    "lat": 34.101316,
    "lng": -118.2362099,
    "url": "https://www.tennenbaumtech.org",
    "type": "charter",
    "state": "CA"
  },
  {
    "name": "ICEF Vista Middle Charter Academy",
    "lat": 33.9954594,
    "lng": -118.4188466,
    "url": "https://ivms-old.icefps.org",
    "type": "charter",
    "state": "CA"
  },
  {
    "name": "ICEF Vista Elementary Charter Academy",
    "lat": 33.9954594,
    "lng": -118.4188466,
    "url": "https://ives-old.icefps.org",
    "type": "charter",
    "state": "CA"
  },
  {
    "name": "Alliance Virgil Roberts Leadership Academy",
    "lat": 33.9764532,
    "lng": -118.3249849,
    "url": "https://www.avrlacademy.org",
    "type": "charter",
    "state": "CA"
  },
  {
    "name": "Alliance Judy Ivie Burton Technology Academy High School",
    "lat": 33.9445123,
    "lng": -118.278053,
    "url": "https://www.burtontech.org",
    "type": "charter",
    "state": "CA"
  },
  {
    "name": "Alliance Gertz-Ressler/Richard Merkin 6-12 Complex",
    "lat": 34.0369889,
    "lng": -118.2822485,
    "url": "https://www.merkinms.org",
    "type": "charter",
    "state": "CA"
  },
  {
    "name": "Alliance Marc & Eva Stern Math and Science School",
    "lat": 34.0664949,
    "lng": -118.1671415,
    "url": "https://www.sternmass.org",
    "type": "charter",
    "state": "CA"
  },
  {
    "name": "Alliance Environmental Science and Technology High School",
    "lat": 34.1133773,
    "lng": -118.247635,
    "url": "https://www.llesat.org",
    "type": "charter",
    "state": "CA"
  },
  {
    "name": "Alliance Piera Barbaglia Shaheen Health Services Academy",
    "lat": 33.9607236,
    "lng": -118.2940871,
    "url": "https://www.pbshsa.org",
    "type": "charter",
    "state": "CA"
  },
  {
    "name": "ASA Charter School",
    "lat": 34.1551792,
    "lng": -117.2941655,
    "url": "https://www.asacharterschool.com",
    "type": "charter",
    "state": "CA"
  },
  {
    "name": "Charter School of Morgan Hill",
    "lat": 37.1516632,
    "lng": -121.6726656,
    "url": "https://www.csmh.org",
    "type": "charter",
    "state": "CA"
  },
  {
    "name": "Hardy Brown College Prep",
    "lat": 34.1012748,
    "lng": -117.297301,
    "url": "https://www.hardybrowncollegeprep.org",
    "type": "charter",
    "state": "CA"
  },
  {
    "name": "Oxford Preparatory Academy - South Orange County",
    "lat": 33.6293366,
    "lng": -117.6583428,
    "url": "https://soc.opaschools.org",
    "type": "charter",
    "state": "CA"
  },
  {
    "name": "Oxford Preparatory Academy - Saddleback Valley",
    "lat": 33.6297069,
    "lng": -117.7009767,
    "url": "https://sv.opaschools.org",
    "type": "charter",
    "state": "CA"
  },
  {
    "name": "Alliance College-Ready Middle Academy 8",
    "lat": 34.0354701,
    "lng": -118.1873327,
    "url": "https://www.crma8.org",
    "type": "charter",
    "state": "CA"
  },
  {
    "name": "ICEF Inglewood Elementary Charter Academy",
    "lat": 33.958334,
    "lng": -118.354804,
    "url": "https://iies-old.icefps.org",
    "type": "charter",
    "state": "CA"
  },
  {
    "name": "Glendale Adventist Academy",
    "lat": 34.156121,
    "lng": -118.22637,
    "url": "https://www.glendaleacademy.org",
    "type": "charter",
    "state": "CA"
  },
  {
    "name": "Corpus Christi School",
    "lat": 37.814241,
    "lng": -122.214061,
    "url": "https://www.corpuschristischool.com",
    "type": "charter",
    "state": "CA"
  },
  {
    "name": "Assumption School",
    "lat": 37.7197143,
    "lng": -122.1368453,
    "url": "https://www.assumptionschool-sl.org",
    "type": "charter",
    "state": "CA"
  },
  {
    "name": "Aquinas High School",
    "lat": 34.1424664,
    "lng": -117.2454376,
    "url": "https://www.aquinashs.net",
    "type": "charter",
    "state": "CA"
  },
  {
    "name": "All Souls Catholic School",
    "lat": 37.657277,
    "lng": -122.4152816,
    "url": "https://www.ssfallsoulsschool.org",
    "type": "charter",
    "state": "CA"
  },
  {
    "name": "All Hallows Academy",
    "lat": 32.8331947,
    "lng": -117.2517762,
    "url": "https://www.allhallowsacademy.com",
    "type": "charter",
    "state": "CA"
  },
  {
    "name": "Al-Arqam Islamic School & College Prep",
    "lat": 38.5007857,
    "lng": -121.4310363,
    "url": "https://www.alarqamislamicschool.org",
    "type": "charter",
    "state": "CA"
  },
  {
    "name": "Rose and Alex Pilibos Armenian School",
    "lat": 34.101366,
    "lng": -118.2984405,
    "url": "https://www.pilibos.org",
    "type": "charter",
    "state": "CA"
  },
  {
    "name": "Ribet Academy",
    "lat": 34.1114016,
    "lng": -118.2434314,
    "url": "https://www.ribetacademy.com",
    "type": "charter",
    "state": "CA"
  },
  {
    "name": "Holy Martyrs Ferrahian High School",
    "lat": 34.166874,
    "lng": -118.518454,
    "url": "https://www.ferrahian.com",
    "type": "charter",
    "state": "CA"
  },
  {
    "name": "Mater Dei High School",
    "lat": 33.7260273,
    "lng": -117.8837551,
    "url": "https://www.materdei.org",
    "type": "charter",
    "state": "CA"
  },
  {
    "name": "Junipero Serra High School",
    "lat": 33.897087,
    "lng": -118.3177227,
    "url": "https://www.la-serrahs.org",
    "type": "charter",
    "state": "CA"
  },
  {
    "name": "St. John Baptist de la Salle School",
    "lat": 34.2648345,
    "lng": -118.5113424,
    "url": "https://www.sjbdls.org",
    "type": "charter",
    "state": "CA"
  },
  {
    "name": "American Martyrs School",
    "lat": 33.8909249,
    "lng": -118.405065,
    "url": "https://www.americanmartyrsschool.org",
    "type": "charter",
    "state": "CA"
  },
  {
    "name": "Holy Names High School",
    "lat": 37.8394834,
    "lng": -122.2308287,
    "url": "https://www.hnhsoakland.org",
    "type": "charter",
    "state": "CA"
  },
  {
    "name": "Holy Angels Elementary School",
    "lat": 34.1309414,
    "lng": -118.0444726,
    "url": "https://www.holyangelsarcadia.net",
    "type": "charter",
    "state": "CA"
  },
  {
    "name": "Highland Hall Waldorf School",
    "lat": 34.2456813,
    "lng": -118.5056871,
    "url": "https://www.highlandhall.org",
    "type": "charter",
    "state": "CA"
  },
  {
    "name": "College Prep High School",
    "lat": 33.7385588,
    "lng": -116.9367544,
    "url": "https://covidinfo.hemetusd.org",
    "type": "charter",
    "state": "CA"
  },
  {
    "name": "Sequoia Union Elementary School",
    "lat": 36.3766951,
    "lng": -119.0374117,
    "url": "https://www.sequoiaunion.org",
    "type": "charter",
    "state": "CA"
  },
  {
    "name": "Thomas Edison Charter Academy",
    "lat": 37.7544096,
    "lng": -122.4260712,
    "url": "https://www.teca-sf.org",
    "type": "charter",
    "state": "CA"
  },
  {
    "name": "Lifeline Education Charter School",
    "lat": 33.8755428,
    "lng": -118.2147594,
    "url": "https://www.lifelinecharterschool.com",
    "type": "charter",
    "state": "CA"
  },
  {
    "name": "Our Lady of Refuge Catholic Church",
    "lat": 33.79813,
    "lng": -118.131513,
    "url": "https://www.ourladyofrefuge.org",
    "type": "charter",
    "state": "CA"
  },
  {
    "name": "Fortune School",
    "lat": 38.5022015,
    "lng": -121.4318552,
    "url": "https://www.fortuneschool.org",
    "type": "charter",
    "state": "CA"
  },
  {
    "name": "Slvusd Charter",
    "lat": 37.0820771,
    "lng": -122.0732893,
    "url": "https://charter.slvusd.org",
    "type": "charter",
    "state": "CA"
  },
  {
    "name": "Alliance Margaret M. Bloomfield High School",
    "lat": 33.9802653,
    "lng": -118.2302661,
    "url": "https://www.bloomfieldhs.org",
    "type": "charter",
    "state": "CA"
  },
  {
    "name": "ICEF View Park Preparatory Middle School",
    "lat": 33.9939539,
    "lng": -118.3311063,
    "url": "https://vpms-old.icefps.org",
    "type": "charter",
    "state": "CA"
  },
  {
    "name": "ICEF View Park Preparatory Charter High School",
    "lat": 33.990744,
    "lng": -118.331121,
    "url": "https://vphs-old.icefps.org",
    "type": "charter",
    "state": "CA"
  },
  {
    "name": "School of Extended Educational Options (SEEO)",
    "lat": 34.062987,
    "lng": -117.722276,
    "url": "https://seeo.pusd.org",
    "type": "charter",
    "state": "CA"
  },
  {
    "name": "Alan Rowe College Prep",
    "lat": 38.3815426,
    "lng": -121.3992041,
    "url": "https://www.alanrowecollegeprep.org",
    "type": "charter",
    "state": "CA"
  },
  {
    "name": "Pinnacle Academy Charter",
    "lat": 36.2089994,
    "lng": -121.1328985,
    "url": "https://www.pinnaclehs.org",
    "type": "charter",
    "state": "CA"
  },
  {
    "name": "ICEF Innovation Los Angeles",
    "lat": 33.997461,
    "lng": -118.2916124,
    "url": "https://iila-old.icefps.org",
    "type": "charter",
    "state": "CA"
  },
  {
    "name": "Ephraim Williams College Prep Middle School",
    "lat": 38.543789,
    "lng": -121.4538419,
    "url": "https://www.ephraimwilliamscollegeprep.org",
    "type": "charter",
    "state": "CA"
  },
  {
    "name": "William Lee College Prep",
    "lat": 38.544382,
    "lng": -121.45263,
    "url": "https://www.williamleecollegeprep.org",
    "type": "charter",
    "state": "CA"
  },
  {
    "name": "Alliance Kory Hunter Middle School",
    "lat": 33.987395,
    "lng": -118.247628,
    "url": "https://www.koryhunterms.org",
    "type": "charter",
    "state": "CA"
  },
  {
    "name": "Alliance Morgan Mckinzie High School",
    "lat": 34.0357652,
    "lng": -118.1879863,
    "url": "https://www.mckinziehs.org",
    "type": "charter",
    "state": "CA"
  },
  {
    "name": "Alliance Marine - Innovation & Technology 6-12 Complex",
    "lat": 34.2335153,
    "lng": -118.3981235,
    "url": "https://www.alliancemit.org",
    "type": "charter",
    "state": "CA"
  },
  {
    "name": "Porterville Military Academy",
    "lat": 36.0922053,
    "lng": -119.037692,
    "url": "https://pma.portervilleschools.org",
    "type": "charter",
    "state": "CA"
  },
  {
    "name": "Child Development Centers - CDC",
    "lat": 33.8616069,
    "lng": -118.3610835,
    "url": "https://cdc.rbusd.org",
    "type": "charter",
    "state": "CA"
  },
  {
    "name": "Zion Lutheran School",
    "lat": 34.5288833,
    "lng": -117.3354492,
    "url": "https://elementary.zionvv.org",
    "type": "charter",
    "state": "CA"
  },
  {
    "name": "Calvary Chapel Junior High School",
    "lat": 33.7018594,
    "lng": -117.9131932,
    "url": "https://www.ms.calvaryschools.org",
    "type": "charter",
    "state": "CA"
  },
  {
    "name": "IV Home School Academy",
    "lat": 32.7929351,
    "lng": -115.5821259,
    "url": "https://www.ivhsa.org",
    "type": "charter",
    "state": "CA"
  },
  {
    "name": "Capitol Collegiate",
    "lat": 38.4813311,
    "lng": -121.4923906,
    "url": "https://www.capitolcollegiate.org",
    "type": "charter",
    "state": "CA"
  },
  {
    "name": "San Jose Charter Academy",
    "lat": 34.0616542,
    "lng": -117.9599668,
    "url": "https://www.sanjosecharteracademy.com",
    "type": "charter",
    "state": "CA"
  },
  {
    "name": "Alliance College-Ready Middle Academy 12",
    "lat": 33.9975196,
    "lng": -118.272818,
    "url": "https://www.crma12.org",
    "type": "charter",
    "state": "CA"
  },
  {
    "name": "Alliance Susan & Eric Smidt Technology High School",
    "lat": 34.0684326,
    "lng": -118.2181789,
    "url": "https://www.smidttech.org",
    "type": "charter",
    "state": "CA"
  },
  {
    "name": "Nestor Language Academy Charter School",
    "lat": 32.5705649,
    "lng": -117.0827859,
    "url": "https://nestor.sbusd.org",
    "type": "charter",
    "state": "CA"
  },
  {
    "name": "San Diego Global Vision Academy",
    "lat": 32.7623975,
    "lng": -117.1190728,
    "url": "https://www.sdgva.org",
    "type": "charter",
    "state": "CA"
  },
  {
    "name": "Alliance Ted K. Tajima High School",
    "lat": 34.0635393,
    "lng": -118.2612537,
    "url": "https://www.tajimahigh.org",
    "type": "charter",
    "state": "CA"
  },
  {
    "name": "Alliance Cindy & Bill Simon Technology Academy High School",
    "lat": 33.9387043,
    "lng": -118.2389232,
    "url": "https://www.simontechnology.org",
    "type": "charter",
    "state": "CA"
  },
  {
    "name": "Nuview Bridge Early College High School",
    "lat": 33.8073623,
    "lng": -117.1476488,
    "url": "https://nbechs.nuviewusd.org",
    "type": "charter",
    "state": "CA"
  },
  {
    "name": "Alliance College-Ready Middle Academy 4",
    "lat": 33.9480506,
    "lng": -118.2739722,
    "url": "https://www.crma4.org",
    "type": "charter",
    "state": "CA"
  },
  {
    "name": "Keyes To Learning Charter School",
    "lat": 37.5558342,
    "lng": -120.9108934,
    "url": "https://www.ktlcharterschool.com",
    "type": "charter",
    "state": "CA"
  },
  {
    "name": "CORE Charter School",
    "lat": 39.1536409,
    "lng": -121.5793259,
    "url": "https://www.corecharter.org",
    "type": "charter",
    "state": "CA"
  },
  {
    "name": "Six Rivers Charter High School",
    "lat": 40.8755781,
    "lng": -124.0897988,
    "url": "https://sixriverscharter.nohum.org",
    "type": "charter",
    "state": "CA"
  },
  {
    "name": "Alliance Jack H. Skirball Middle School",
    "lat": 33.930183,
    "lng": -118.2649575,
    "url": "https://www.skirballmiddle.org",
    "type": "charter",
    "state": "CA"
  },
  {
    "name": "Alliance Renee & Meyer Luskin Academy High School",
    "lat": 33.9764532,
    "lng": -118.3249849,
    "url": "https://www.luskinacademy.org",
    "type": "charter",
    "state": "CA"
  },
  {
    "name": "Alliance Ouchi-O'Donovan 6-12 Complex",
    "lat": 33.9936413,
    "lng": -118.3224225,
    "url": "https://www.ouchihs.org",
    "type": "charter",
    "state": "CA"
  },
  {
    "name": "Alliance Patti & Peter Neuwirth Leadership Academy",
    "lat": 34.0018188,
    "lng": -118.2738727,
    "url": "https://www.neuwirthleadership.org",
    "type": "charter",
    "state": "CA"
  },
  {
    "name": "Alliance Dr. Olga Mohan High School",
    "lat": 34.0365769,
    "lng": -118.271278,
    "url": "https://www.mohanhs.org",
    "type": "charter",
    "state": "CA"
  },
  {
    "name": "Alliance Collins Family College-Ready High School",
    "lat": 33.9770006,
    "lng": -118.2338316,
    "url": "https://www.collinsfamilyjaguars.org",
    "type": "charter",
    "state": "CA"
  },
  {
    "name": "Superior Street Elementary",
    "lat": 34.2479226,
    "lng": -118.5752961,
    "url": "https://superiores.lausd.org",
    "type": "charter",
    "state": "CA"
  },
  {
    "name": "Hilldale School",
    "lat": 37.6984,
    "lng": -122.4584393,
    "url": "https://www.hilldaleschool.org",
    "type": "charter",
    "state": "CA"
  },
  {
    "name": "Van Gogh Street Elementary",
    "lat": 34.3056768,
    "lng": -118.5054325,
    "url": "https://vangoghcharter.lausd.org",
    "type": "charter",
    "state": "CA"
  },
  {
    "name": "Justice Street Elementary",
    "lat": 34.2154899,
    "lng": -118.63504,
    "url": "https://justicestacademyes.lausd.org",
    "type": "charter",
    "state": "CA"
  },
  {
    "name": "Welby Way Elementary",
    "lat": 34.192143,
    "lng": -118.6379426,
    "url": "https://welbywayces.lausd.org",
    "type": "charter",
    "state": "CA"
  },
  {
    "name": "Dixie Canyon Avenue Elementary",
    "lat": 34.1478605,
    "lng": -118.424775,
    "url": "https://dixiecanyones.lausd.org",
    "type": "charter",
    "state": "CA"
  },
  {
    "name": "Castlebay Lane Charter Elementary",
    "lat": 34.2933881,
    "lng": -118.5475987,
    "url": "https://www.castlebaylanecharter.com",
    "type": "charter",
    "state": "CA"
  },
  {
    "name": "Woodlake Elementary Community Charter",
    "lat": 34.1758667,
    "lng": -118.6211339,
    "url": "https://woodlakeces.lausd.org",
    "type": "charter",
    "state": "CA"
  },
  {
    "name": "Open Charter Magnet School",
    "lat": 33.9681085,
    "lng": -118.3783925,
    "url": "https://opencharteres.lausd.org",
    "type": "charter",
    "state": "CA"
  },
  {
    "name": "Calabash Charter Academy",
    "lat": 34.1579823,
    "lng": -118.6290515,
    "url": "https://calabashacad.lausd.org",
    "type": "charter",
    "state": "CA"
  },
  {
    "name": "Brookfield School",
    "lat": 38.516321,
    "lng": -121.5258715,
    "url": "https://www.brookfieldschool.org",
    "type": "charter",
    "state": "CA"
  },
  {
    "name": "Calvary Chapel High School",
    "lat": 33.6976527,
    "lng": -117.9090474,
    "url": "https://www.hs.calvaryschools.org",
    "type": "charter",
    "state": "CA"
  },
  {
    "name": "Harmony Magnet Academy",
    "lat": 36.142975,
    "lng": -119.0649951,
    "url": "https://harmony.portervilleschools.org",
    "type": "charter",
    "state": "CA"
  },
  {
    "name": "The Academy of Alameda",
    "lat": 37.776499,
    "lng": -122.284703,
    "url": "https://www.aoaschools.org",
    "type": "charter",
    "state": "CA"
  },
  {
    "name": "Westside Innovative School House",
    "lat": 33.9678148,
    "lng": -118.404001,
    "url": "https://www.wishcharter.org",
    "type": "charter",
    "state": "CA"
  },
  {
    "name": "Ceiba College Preparatory Academy",
    "lat": 36.9046312,
    "lng": -121.7593593,
    "url": "https://www.ceibaschools.org",
    "type": "charter",
    "state": "CA"
  },
  {
    "name": "Butterfield Charter School",
    "lat": 36.0922053,
    "lng": -119.037692,
    "url": "https://butterfield.portervilleschools.org",
    "type": "charter",
    "state": "CA"
  },
  {
    "name": "Workforce Academy",
    "lat": 35.3439008,
    "lng": -119.0653696,
    "url": "https://workforce.kernhigh.org",
    "type": "charter",
    "state": "CA"
  },
  {
    "name": "Riverside Drive Charter School",
    "lat": 34.157531,
    "lng": -118.4175178,
    "url": "https://www.riversidedrivecharter.org",
    "type": "charter",
    "state": "CA"
  },
  {
    "name": "North County Trade Tech High School",
    "lat": 33.2139769,
    "lng": -117.2559736,
    "url": "https://www.tradetechhigh.org",
    "type": "charter",
    "state": "CA"
  },
  {
    "name": "City Honors International Preparatory High School",
    "lat": 33.964337,
    "lng": -118.3557157,
    "url": "https://cityhonors.inglewoodusd.com",
    "type": "charter",
    "state": "CA"
  },
  {
    "name": "Wilbur Charter for Enriched Academics",
    "lat": 34.165738,
    "lng": -118.544639,
    "url": "https://wilburcharteres.lausd.org",
    "type": "charter",
    "state": "CA"
  },
  {
    "name": "Mountain Oaks School",
    "lat": 38.1890485,
    "lng": -120.6918818,
    "url": "https://www.mountainoaks.org",
    "type": "charter",
    "state": "CA"
  },
  {
    "name": "Architecture, Construction & Engineering Charter High School",
    "lat": 34.206547,
    "lng": -119.0762196,
    "url": "https://www.acecharterhigh.org",
    "type": "charter",
    "state": "CA"
  },
  {
    "name": "Calvert Street Elementary",
    "lat": 34.1823245,
    "lng": -118.5651745,
    "url": "https://calvertes.lausd.org",
    "type": "charter",
    "state": "CA"
  },
  {
    "name": "All Tribes American Indian Charter School",
    "lat": 33.201603,
    "lng": -117.0313976,
    "url": "https://www.alltribescharter.org",
    "type": "charter",
    "state": "CA"
  },
  {
    "name": "Knollwood Elementary",
    "lat": 34.2848661,
    "lng": -118.4937635,
    "url": "https://knollwoodacad.lausd.org",
    "type": "charter",
    "state": "CA"
  },
  {
    "name": "Nestle Avenue Charter Elementary",
    "lat": 34.161604,
    "lng": -118.531229,
    "url": "https://www.nestleavecharter.com",
    "type": "charter",
    "state": "CA"
  },
  {
    "name": "Santa Rosa Academy",
    "lat": 33.677653,
    "lng": -117.1786671,
    "url": "https://www.sra.mn",
    "type": "charter",
    "state": "CA"
  },
  {
    "name": "Dearborn Elementary Charter Academy",
    "lat": 34.2387064,
    "lng": -118.5083153,
    "url": "https://www.dearbornelem.com",
    "type": "charter",
    "state": "CA"
  },
  {
    "name": "Canyon Charter School",
    "lat": 34.0319318,
    "lng": -118.5120139,
    "url": "https://canyonces.lausd.org",
    "type": "charter",
    "state": "CA"
  },
  {
    "name": "Serrania Charter For Enriched Studies",
    "lat": 34.160151,
    "lng": -118.588258,
    "url": "https://serraniaavees.lausd.org",
    "type": "charter",
    "state": "CA"
  },
  {
    "name": "Sherman Oaks Elementary Charter",
    "lat": 34.149896,
    "lng": -118.4551762,
    "url": "https://www.shermanoakselementarycharter.com",
    "type": "charter",
    "state": "CA"
  },
  {
    "name": "Pasadena Rosebud Academy",
    "lat": 34.1858766,
    "lng": -118.1508424,
    "url": "https://www.rosebudacademy.com",
    "type": "charter",
    "state": "CA"
  },
  {
    "name": "John Adams Academy-Roseville",
    "lat": 38.753358,
    "lng": -121.267027,
    "url": "https://www.johnadamsacademy.org",
    "type": "charter",
    "state": "CA"
  },
  {
    "name": "Redding STEM Academy",
    "lat": 40.6306386,
    "lng": -122.3994815,
    "url": "https://www.rstem.org",
    "type": "charter",
    "state": "CA"
  },
  {
    "name": "Hesby Oaks Leadership Charter",
    "lat": 34.162044,
    "lng": -118.473647,
    "url": "https://hesbycharter.lausd.org",
    "type": "charter",
    "state": "CA"
  },
  {
    "name": "Carpenter Community Charter School",
    "lat": 34.141319,
    "lng": -118.391831,
    "url": "https://carpenteres.lausd.org",
    "type": "charter",
    "state": "CA"
  },
  {
    "name": "EJE Academies Charter School",
    "lat": 32.7849336,
    "lng": -116.9698339,
    "url": "https://www.ejeacademies.org",
    "type": "charter",
    "state": "CA"
  },
  {
    "name": "Academia Moderna Charter School (Alta PS)",
    "lat": 33.965782,
    "lng": -118.2165354,
    "url": "https://www.academiamoderna.org",
    "type": "charter",
    "state": "CA"
  },
  {
    "name": "The O'Farrell Charter School",
    "lat": 32.702541,
    "lng": -117.064835,
    "url": "https://www.ofarrellschool.org",
    "type": "charter",
    "state": "CA"
  },
  {
    "name": "Harriet Tubman Village Charter School",
    "lat": 32.769798,
    "lng": -117.0497884,
    "url": "https://www.tubmancharter.org",
    "type": "charter",
    "state": "CA"
  },
  {
    "name": "Edward B Cole Sr. Academy",
    "lat": 33.7443535,
    "lng": -117.8641288,
    "url": "https://www.ebcacademy.com",
    "type": "charter",
    "state": "CA"
  },
  {
    "name": "Paul Revere Charter Middle School",
    "lat": 34.0574506,
    "lng": -118.4950009,
    "url": "https://paulreverems.lausd.org",
    "type": "charter",
    "state": "CA"
  },
  {
    "name": "Global Education Collaborative",
    "lat": 34.00843,
    "lng": -118.282821,
    "url": "https://www.geaschool.com",
    "type": "charter",
    "state": "CA"
  },
  {
    "name": "New Los Angeles Middle School",
    "lat": 34.040359,
    "lng": -118.3578,
    "url": "https://www.newlamiddle.org",
    "type": "charter",
    "state": "CA"
  },
  {
    "name": "Pathways To College",
    "lat": 34.4176156,
    "lng": -117.3077778,
    "url": "https://www.pathwaysk8.com",
    "type": "charter",
    "state": "CA"
  },
  {
    "name": "Summit Leadership Academy High Desert",
    "lat": 34.4122397,
    "lng": -117.3896738,
    "url": "https://www.slahd.com",
    "type": "charter",
    "state": "CA"
  },
  {
    "name": "James Jordan Middle School",
    "lat": 34.2169982,
    "lng": -118.5388266,
    "url": "https://www.jamesjordanms.com",
    "type": "charter",
    "state": "CA"
  },
  {
    "name": "Today's Fresh Start Charter School",
    "lat": 34.0028482,
    "lng": -118.3315568,
    "url": "https://www.todaysfreshstart.org",
    "type": "charter",
    "state": "CA"
  },
  {
    "name": "Westwood Charter School",
    "lat": 34.0476328,
    "lng": -118.4302426,
    "url": "https://westwoodces.lausd.org",
    "type": "charter",
    "state": "CA"
  },
  {
    "name": "Darnall Charter School",
    "lat": 32.7460379,
    "lng": -117.0674113,
    "url": "https://www.darnallcharter.org",
    "type": "charter",
    "state": "CA"
  },
  {
    "name": "Sol Aureus College Preparatory",
    "lat": 38.507108,
    "lng": -121.5259545,
    "url": "https://sacprep.org",
    "type": "charter",
    "state": "CA"
  },
  {
    "name": "Port of Los Angeles High School (Pola)",
    "lat": 33.7399336,
    "lng": -118.2824321,
    "url": "https://www.polahs.net",
    "type": "charter",
    "state": "CA"
  },
  {
    "name": "Synergy Academies",
    "lat": 34.015519,
    "lng": -118.2482334,
    "url": "https://www.wearesynergy.org",
    "type": "charter",
    "state": "CA"
  },
  {
    "name": "Dr. Theodore T. Alexander Science Center",
    "lat": 34.017174,
    "lng": -118.2828376,
    "url": "https://alexanderes.lausd.org",
    "type": "charter",
    "state": "CA"
  },
  {
    "name": "Palisades Charter Elementary School",
    "lat": 34.0506829,
    "lng": -118.4750307,
    "url": "https://palisadesces.lausd.org",
    "type": "charter",
    "state": "CA"
  },
  {
    "name": "Montague Charter Academy for the Arts and Sciences",
    "lat": 34.2372933,
    "lng": -118.4254275,
    "url": "https://www.montaguecharter.org",
    "type": "charter",
    "state": "CA"
  },
  {
    "name": "Wilder's Preparatory Academy Charter School",
    "lat": 33.9735944,
    "lng": -118.3574957,
    "url": "https://www.wpacs.com",
    "type": "charter",
    "state": "CA"
  },
  {
    "name": "Center for Advanced Learning",
    "lat": 34.0106323,
    "lng": -118.2564023,
    "url": "https://www.centeradvancedlearning.org",
    "type": "charter",
    "state": "CA"
  },
  {
    "name": "San Jacinto Valley Academy",
    "lat": 33.7710771,
    "lng": -116.9587272,
    "url": "https://www.sjva.net",
    "type": "charter",
    "state": "CA"
  },
  {
    "name": "Greater San Diego Academy",
    "lat": 32.7292161,
    "lng": -116.8559305,
    "url": "https://www.gsdacademy.com",
    "type": "charter",
    "state": "CA"
  },
  {
    "name": "Oakland Military Institute College Preparatory Academy",
    "lat": 37.8292445,
    "lng": -122.2726353,
    "url": "https://www.oakmil.org",
    "type": "charter",
    "state": "CA"
  },
  {
    "name": "High Tech Los Angeles Charter High School",
    "lat": 34.1866507,
    "lng": -118.474126,
    "url": "https://www.ht-la.org",
    "type": "charter",
    "state": "CA"
  },
  {
    "name": "Keiller Leadership Academy",
    "lat": 32.713622,
    "lng": -117.042435,
    "url": "https://www.mykla.org",
    "type": "charter",
    "state": "CA"
  },
  {
    "name": "Watts Learning Center",
    "lat": 33.9501706,
    "lng": -118.2785653,
    "url": "https://www.wattslearningcenter.org",
    "type": "charter",
    "state": "CA"
  },
  {
    "name": "Gaspar De Portola Middle School",
    "lat": 34.1672036,
    "lng": -118.5414133,
    "url": "https://portolams.lausd.org",
    "type": "charter",
    "state": "CA"
  },
  {
    "name": "Pacoima Charter School",
    "lat": 34.269238,
    "lng": -118.414869,
    "url": "https://www.pacoimacharter.org",
    "type": "charter",
    "state": "CA"
  },
  {
    "name": "Marquez Charter School",
    "lat": 34.0458421,
    "lng": -118.5478198,
    "url": "https://marquezres.lausd.org",
    "type": "charter",
    "state": "CA"
  },
  {
    "name": "Cleveland Charter High School",
    "lat": 34.2182056,
    "lng": -118.5490772,
    "url": "https://www.clevelandhs.org",
    "type": "charter",
    "state": "CA"
  },
  {
    "name": "Sylmar Charter High School",
    "lat": 34.3078363,
    "lng": -118.4404079,
    "url": "https://www.sylmarhs.org",
    "type": "charter",
    "state": "CA"
  },
  {
    "name": "Taft Charter High School",
    "lat": 34.1681588,
    "lng": -118.5721509,
    "url": "https://tafths.lausd.org",
    "type": "charter",
    "state": "CA"
  },
  {
    "name": "University High School Charter",
    "lat": 34.046041,
    "lng": -118.460718,
    "url": "https://universityhs.lausd.org",
    "type": "charter",
    "state": "CA"
  },
  {
    "name": "Chatsworth Charter High School",
    "lat": 34.2523464,
    "lng": -118.5842838,
    "url": "https://www.chatsworthhs.org",
    "type": "charter",
    "state": "CA"
  },
  {
    "name": "Kenter Canyon Elementary",
    "lat": 34.0701278,
    "lng": -118.4885192,
    "url": "https://kentercanyones.lausd.org",
    "type": "charter",
    "state": "CA"
  },
  {
    "name": "Louis Armstrong Middle School",
    "lat": 34.162965,
    "lng": -118.4285091,
    "url": "https://www.louisarmstrongms.org",
    "type": "charter",
    "state": "CA"
  },
  {
    "name": "HighTech LA Middle School",
    "lat": 34.162965,
    "lng": -118.4285091,
    "url": "https://www.htla-ms.org",
    "type": "charter",
    "state": "CA"
  },
  {
    "name": "PUC Early College Academy for Leaders and Scholars",
    "lat": 34.101316,
    "lng": -118.2362099,
    "url": "https://www.pucecals.org",
    "type": "charter",
    "state": "CA"
  },
  {
    "name": "PPEP Tec High School",
    "lat": 32.1694206,
    "lng": -110.9440746,
    "url": "https://www.ppeptechs.org",
    "type": "district",
    "state": "AZ"
  },
  {
    "name": "Rex & Margaret Fortune School of Education",
    "lat": 38.5022015,
    "lng": -121.4318552,
    "url": "https://www.fortuneschool.us",
    "type": "district",
    "state": "CA"
  },
  {
    "name": "Oro Grande School District",
    "lat": 34.5987742,
    "lng": -117.3320593,
    "url": "https://www.orogrande.net",
    "type": "district",
    "state": "CA"
  },
  {
    "name": "San Lorenzo Valley Unified",
    "lat": 37.0820771,
    "lng": -122.0732893,
    "url": "https://www.slvusd.org",
    "type": "district",
    "state": "CA"
  }
]